[
  {
    "nombre": "El Sorbito (APD-CGD)",
    "codigo": "01001",
    "location": {
      "town": "Alcalá De Guadaíra",
      "province": "Sevilla",
      "country": "España",
      "lat": 37.208475,
      "lon": -5.706642
    }
  },
  {
    "nombre": "La Trinidad (APT-CGD)",
    "codigo": "01002",
    "location": {
      "town": "Alcalá De Guadaíra",
      "province": "Sevilla",
      "country": "España",
      "lat": null,
      "lon": null
    }
  },
  {
    "nombre": "Arahal",
    "codigo": "01003",
    "location": {
      "town": "Arahal",
      "province": "Sevilla",
      "country": "España",
      "lat": 37.268081,
      "lon": -5.548514
    }
  },
  {
    "nombre": "Paradas (APD-CGD)",
    "codigo": "01004",
    "location": {
      "town": "Paradas",
      "province": "Sevilla",
      "country": "España",
      "lat": null,
      "lon": null
    }
  },
  {
    "nombre": "Marchena",
    "codigo": "01005",
    "location": {
      "town": "Marchena",
      "province": "Sevilla",
      "country": "España",
      "lat": 37.334282,
      "lon": -5.425519
    }
  },
  {
    "nombre": "Ojuelos-Lantejuela (APD)",
    "codigo": "01006",
    "location": {
      "town": "Marchena",
      "province": "Sevilla",
      "country": "España",
      "lat": null,
      "lon": null
    }
  },
  {
    "nombre": "Osuna",
    "codigo": "01007",
    "location": {
      "town": "Osuna",
      "province": "Sevilla",
      "country": "España",
      "lat": 37.233899,
      "lon": -5.115026
    }
  },
  {
    "nombre": "Aguadulce (APD)",
    "codigo": "01008",
    "location": {
      "town": "Aguadulce",
      "province": "Sevilla",
      "country": "España",
      "lat": null,
      "lon": null
    }
  },
  {
    "nombre": "Pedrera",
    "codigo": "01009",
    "location": {
      "town": "Pedrera",
      "province": "Sevilla",
      "country": "España",
      "lat": 37.222396,
      "lon": -4.893519
    }
  },
  {
    "nombre": "Puente Genil-Herrera",
    "codigo": "02002",
    "location": {
      "town": "Puente Genil",
      "province": "Córdoba",
      "country": "España",
      "lat": 37.3579,
      "lon": -4.821638
    }
  },
  {
    "nombre": "Antequera - Santa Ana",
    "codigo": "02003",
    "location": {
      "town": "Antequera",
      "province": "Málaga",
      "country": "España",
      "lat": 37.069881,
      "lon": -4.719014
    }
  },
  {
    "nombre": "Antequera Av",
    "codigo": "02030",
    "location": {
      "town": "Antequera",
      "province": "Málaga",
      "country": "España",
      "lat": 37.0334437,
      "lon": -4.5612901
    }
  },
  {
    "nombre": "Caja Central (Madrid",
    "codigo": "02110",
    "location": {
      "town": "Madrid",
      "province": "Madrid",
      "country": "España",
      "lat": null,
      "lon": null
    }
  },
  {
    "nombre": "Caja De Barcelona",
    "codigo": "02115",
    "location": {
      "town": "Barcelona",
      "province": "Barcelona",
      "country": "España",
      "lat": null,
      "lon": null
    }
  },
  {
    "nombre": "Mengíbar-Artichuela (APD-CGD)",
    "codigo": "03001",
    "location": {
      "town": "Mengíbar",
      "province": "Jaén",
      "country": "España",
      "lat": 37.978219,
      "lon": -3.803308
    }
  },
  {
    "nombre": "Villargordo (APD)",
    "codigo": "03002",
    "location": {
      "town": "Jaén",
      "province": "Jaén",
      "country": "España",
      "lat": 37.913359,
      "lon": -3.784829
    }
  },
  {
    "nombre": "Granena (APD-CGD)",
    "codigo": "03003",
    "location": {
      "town": "Jaén",
      "province": "Jaén",
      "country": "España",
      "lat": 37.847712,
      "lon": -3.765399
    }
  },
  {
    "nombre": "Jaén",
    "codigo": "03100",
    "location": {
      "town": "Jaén",
      "province": "Jaén",
      "country": "España",
      "lat": 37.779827,
      "lon": -3.790798
    }
  },
  {
    "nombre": "Torredelcamp(APD-CGD)",
    "codigo": "03102",
    "location": {
      "town": "Torre Del Campo",
      "province": "Jaén",
      "country": "España",
      "lat": null,
      "lon": null
    }
  },
  {
    "nombre": "Torredonjimeno (APD-CGD)",
    "codigo": "03103",
    "location": {
      "town": "Torredonjimeno",
      "province": "Jaén",
      "country": "España",
      "lat": null,
      "lon": null
    }
  },
  {
    "nombre": "Martos (APD-CGD)",
    "codigo": "03104",
    "location": {
      "town": "Martos",
      "province": "Jaén",
      "country": "España",
      "lat": null,
      "lon": null
    }
  },
  {
    "nombre": "Vado-Jaen (APD)",
    "codigo": "03105",
    "location": {
      "town": "Martos",
      "province": "Jaén",
      "country": "España",
      "lat": null,
      "lon": null
    }
  },
  {
    "nombre": "Alcaudete-Fte. De Orbe",
    "codigo": "03106",
    "location": {
      "town": "Alcaudete",
      "province": "Jaén",
      "country": "España",
      "lat": null,
      "lon": null
    }
  },
  {
    "nombre": "Collado De Las Arcas (APD)",
    "codigo": "03107",
    "location": {
      "town": "Luque",
      "province": "Jaén",
      "country": "España",
      "lat": null,
      "lon": null
    }
  },
  {
    "nombre": "Luque",
    "codigo": "03108",
    "location": {
      "town": "Luque",
      "province": "Jaén",
      "country": "España",
      "lat": null,
      "lon": null
    }
  },
  {
    "nombre": "Zuheros (APD)",
    "codigo": "03109",
    "location": {
      "town": "Zuheros",
      "province": "Jaén",
      "country": "España",
      "lat": null,
      "lon": null
    }
  },
  {
    "nombre": "Dona Mencia (APD)",
    "codigo": "03110",
    "location": {
      "town": "Doña Mencía",
      "province": "Jaén",
      "country": "España",
      "lat": null,
      "lon": null
    }
  },
  {
    "nombre": "Cabra De Cordoba",
    "codigo": "03111",
    "location": {
      "town": "Cabra",
      "province": "Jaén",
      "country": "España",
      "lat": null,
      "lon": null
    }
  },
  {
    "nombre": "Lucena",
    "codigo": "03112",
    "location": {
      "town": "Lucena",
      "province": "Jaén",
      "country": "España",
      "lat": null,
      "lon": null
    }
  },
  {
    "nombre": "Moriles",
    "codigo": "03113",
    "location": {
      "town": "Moriles",
      "province": "Jaén",
      "country": "España",
      "lat": null,
      "lon": null
    }
  },
  {
    "nombre": "Cuenca Fernando Zóbel",
    "codigo": "03208",
    "location": {
      "town": "Cuenca",
      "province": "Cuenca",
      "country": "España",
      "lat": 40.035192,
      "lon": -2.14441
    }
  },
  {
    "nombre": "Requena Utiel",
    "codigo": "03213",
    "location": {
      "town": "Requena",
      "province": "Valencia/València",
      "country": "España",
      "lat": 39.519834,
      "lon": -1.127601
    }
  },
  {
    "nombre": "València Joaquín Sorolla",
    "codigo": "03216",
    "location": {
      "town": "Valencia",
      "province": "Valencia/València",
      "country": "España",
      "lat": 39.459051,
      "lon": -0.382923
    }
  },
  {
    "nombre": "Villena Av",
    "codigo": "03309",
    "location": {
      "town": "Villena",
      "province": "Alicante/Alacant",
      "country": "España",
      "lat": 38.585302,
      "lon": -0.873295
    }
  },
  {
    "nombre": "Elche Av/Elx Av",
    "codigo": "03410",
    "location": {
      "town": "Elche/Elx",
      "province": "Alicante/Alacant",
      "country": "España",
      "lat": 38.24551,
      "lon": -0.76675
    }
  },
  {
    "nombre": "Callosa De Segura - Cox",
    "codigo": "03412",
    "location": {
      "town": "Callosa De Segura",
      "province": "Alicante/Alacant",
      "country": "España",
      "lat": 38.1227708,
      "lon": -0.8745727
    }
  },
  {
    "nombre": "Linares-Paseo Linarejos",
    "codigo": "04001",
    "location": {
      "town": "Linares",
      "province": "Jaén",
      "country": "España",
      "lat": 40.347189,
      "lon": -3.664578
    }
  },
  {
    "nombre": "Guadalajara - Yebes",
    "codigo": "04007",
    "location": {
      "town": "Yebes",
      "province": "Guadalajara",
      "country": "España",
      "lat": 40.587315,
      "lon": -3.124301
    }
  },
  {
    "nombre": "Zaragoza - Delicias",
    "codigo": "04040",
    "location": {
      "town": "Zaragoza",
      "province": "Zaragoza",
      "country": "España",
      "lat": 41.658649,
      "lon": -0.911615
    }
  },
  {
    "nombre": "Camp Tarragona",
    "codigo": "04104",
    "location": {
      "town": "Tarragona",
      "province": "Tarragona",
      "country": "España",
      "lat": 41.192066,
      "lon": 1.272666
    }
  },
  {
    "nombre": "Figueres Vilafant",
    "codigo": "04307",
    "location": {
      "town": "Vilafant",
      "province": "Girona",
      "country": "España",
      "lat": 42.264771,
      "lon": 2.943547
    }
  },
  {
    "nombre": "Granada",
    "codigo": "05000",
    "location": {
      "town": "Granada",
      "province": "Granada",
      "country": "España",
      "lat": 37.184038,
      "lon": -3.609154
    }
  },
  {
    "nombre": "Atarfe-Santafe",
    "codigo": "05002",
    "location": {
      "town": "Atarfe",
      "province": "Granada",
      "country": "España",
      "lat": 37.216314,
      "lon": -3.694583
    }
  },
  {
    "nombre": "Sierra Elvira (APD-CGD)",
    "codigo": "05003",
    "location": {
      "town": "Atarfe",
      "province": "Granada",
      "country": "España",
      "lat": 37.233188,
      "lon": -3.731477
    }
  },
  {
    "nombre": "Pinos Ponte (APT-CGD)",
    "codigo": "05004",
    "location": {
      "town": "Pinos Puente",
      "province": "Granada",
      "country": "España",
      "lat": 37.247231,
      "lon": -3.756148
    }
  },
  {
    "nombre": "Anzola (APD)",
    "codigo": "05005",
    "location": {
      "town": "Pinos Puente",
      "province": "Granada",
      "country": "España",
      "lat": 37.251818,
      "lon": -3.79332
    }
  },
  {
    "nombre": "San Pascual (APD-CGD)",
    "codigo": "05006",
    "location": {
      "town": "Pinos Puente",
      "province": "Granada",
      "country": "España",
      "lat": 37.24511,
      "lon": -3.828697
    }
  },
  {
    "nombre": "Illora - Lachar (APD)",
    "codigo": "05007",
    "location": {
      "town": "Illora",
      "province": "Granada",
      "country": "España",
      "lat": 37.2500689,
      "lon": -3.859018
    }
  },
  {
    "nombre": "Alomartes (APD)",
    "codigo": "05008",
    "location": {
      "town": "Illora",
      "province": "Granada",
      "country": "España",
      "lat": 37.242201,
      "lon": -3.911302
    }
  },
  {
    "nombre": "Tocon-Montefrio (APT)",
    "codigo": "05009",
    "location": {
      "town": "Illora",
      "province": "Granada",
      "country": "España",
      "lat": 37.232841,
      "lon": -3.962381
    }
  },
  {
    "nombre": "Villanueva Mesia (APD)",
    "codigo": "05010",
    "location": {
      "town": "Villanueva Mesía",
      "province": "Granada",
      "country": "España",
      "lat": 37.2205019,
      "lon": -4.011728
    }
  },
  {
    "nombre": "Huetor-Tajar (APD)",
    "codigo": "05011",
    "location": {
      "town": "Huétor Tájar",
      "province": "Granada",
      "country": "España",
      "lat": 37.203461,
      "lon": -4.059959
    }
  },
  {
    "nombre": "Loja",
    "codigo": "05012",
    "location": {
      "town": "Loja",
      "province": "Granada",
      "country": "España",
      "lat": 37.175372,
      "lon": -4.134841
    }
  },
  {
    "nombre": "Loja - San Francisco",
    "codigo": "05013",
    "location": {
      "town": "Loja",
      "province": "Granada",
      "country": "España",
      "lat": 37.174868,
      "lon": -4.149479
    }
  },
  {
    "nombre": "Riofrio (APD)",
    "codigo": "05014",
    "location": {
      "town": "Loja",
      "province": "Granada",
      "country": "España",
      "lat": 37.1480899,
      "lon": -4.203528
    }
  },
  {
    "nombre": "Salinas-Villanueva Tapia (APT)",
    "codigo": "05015",
    "location": {
      "town": "Archidona",
      "province": "Málaga",
      "country": "España",
      "lat": 37.122472,
      "lon": -4.298442
    }
  },
  {
    "nombre": "Archidona (APT)",
    "codigo": "05016",
    "location": {
      "town": "Archidona",
      "province": "Málaga",
      "country": "España",
      "lat": 37.134572,
      "lon": -4.425941
    }
  },
  {
    "nombre": "Antequera - Ciudad",
    "codigo": "05019",
    "location": {
      "town": "Antequera",
      "province": "Málaga",
      "country": "España",
      "lat": 37.028171,
      "lon": -4.560911
    }
  },
  {
    "nombre": "Las Maravillas (APD)",
    "codigo": "05020",
    "location": {
      "town": "Antequera",
      "province": "Málaga",
      "country": "España",
      "lat": null,
      "lon": null
    }
  },
  {
    "nombre": "La Pena (APT-CGD)",
    "codigo": "05023",
    "location": {
      "town": "Antequera",
      "province": "Málaga",
      "country": "España",
      "lat": null,
      "lon": null
    }
  },
  {
    "nombre": "San Xoán",
    "codigo": "05102",
    "location": {
      "town": "Ferrol",
      "province": "Coruña, A",
      "country": "España",
      "lat": 43.494664,
      "lon": -8.213713
    }
  },
  {
    "nombre": "Santa Icía",
    "codigo": "05103",
    "location": {
      "town": "Narón",
      "province": "Coruña, A",
      "country": "España",
      "lat": 43.500113,
      "lon": -8.199581
    }
  },
  {
    "nombre": "Virxe Do Mar",
    "codigo": "05104",
    "location": {
      "town": "Narón",
      "province": "Coruña, A",
      "country": "España",
      "lat": 43.496509,
      "lon": -8.204876
    }
  },
  {
    "nombre": "Piñeiros",
    "codigo": "05105",
    "location": {
      "town": "Narón",
      "province": "Coruña, A",
      "country": "España",
      "lat": 43.509526,
      "lon": -8.183968
    }
  },
  {
    "nombre": "O Ponto",
    "codigo": "05106",
    "location": {
      "town": "Narón",
      "province": "Coruña, A",
      "country": "España",
      "lat": 43.514774,
      "lon": -8.177783
    }
  },
  {
    "nombre": "Xuvia",
    "codigo": "05107",
    "location": {
      "town": "Narón",
      "province": "Coruña, A",
      "country": "España",
      "lat": 43.517113,
      "lon": -8.161322
    }
  },
  {
    "nombre": "O Alto Do Castiñeiro",
    "codigo": "05108",
    "location": {
      "town": "Narón",
      "province": "Coruña, A",
      "country": "España",
      "lat": 43.503179,
      "lon": -8.195559
    }
  },
  {
    "nombre": "Ferrerías",
    "codigo": "05109",
    "location": {
      "town": "Narón",
      "province": "Coruña, A",
      "country": "España",
      "lat": 43.527976,
      "lon": -8.150454
    }
  },
  {
    "nombre": "Santander-Feve",
    "codigo": "05110",
    "location": {
      "town": "Santander",
      "province": "Cantabria",
      "country": "España",
      "lat": 43.458869,
      "lon": -3.811065
    }
  },
  {
    "nombre": "Sedes",
    "codigo": "05111",
    "location": {
      "town": "Narón",
      "province": "Coruña, A",
      "country": "España",
      "lat": 43.542607,
      "lon": -8.140199
    }
  },
  {
    "nombre": "Pedroso De Narón",
    "codigo": "05113",
    "location": {
      "town": "Narón",
      "province": "Coruña, A",
      "country": "España",
      "lat": 43.536748,
      "lon": -8.109213
    }
  },
  {
    "nombre": "San Sadurniño",
    "codigo": "05115",
    "location": {
      "town": "San Sadurniño",
      "province": "Coruña, A",
      "country": "España",
      "lat": 43.546021,
      "lon": -8.077931
    }
  },
  {
    "nombre": "Lamas",
    "codigo": "05117",
    "location": {
      "town": "San Sadurniño",
      "province": "Coruña, A",
      "country": "España",
      "lat": 43.54729,
      "lon": -8.049245
    }
  },
  {
    "nombre": "Apalla",
    "codigo": "05119",
    "location": {
      "town": "San Sadurniño",
      "province": "Coruña, A",
      "country": "España",
      "lat": 43.550463,
      "lon": -8.018649
    }
  },
  {
    "nombre": "Moeche",
    "codigo": "05121",
    "location": {
      "town": "Moeche",
      "province": "Coruña, A",
      "country": "España",
      "lat": 43.562171,
      "lon": -8.002732
    }
  },
  {
    "nombre": "Labacengos",
    "codigo": "05123",
    "location": {
      "town": "Moeche",
      "province": "Coruña, A",
      "country": "España",
      "lat": 43.56528,
      "lon": -7.980225
    }
  },
  {
    "nombre": "Entrambarrías",
    "codigo": "05125",
    "location": {
      "town": "Moeche",
      "province": "Coruña, A",
      "country": "España",
      "lat": 43.57706,
      "lon": -7.954257
    }
  },
  {
    "nombre": "Cerdido",
    "codigo": "05127",
    "location": {
      "town": "Cerdido",
      "province": "Coruña, A",
      "country": "España",
      "lat": 43.587205,
      "lon": -7.934626
    }
  },
  {
    "nombre": "A Cuqueira",
    "codigo": "05129",
    "location": {
      "town": "Cerdido",
      "province": "Coruña, A",
      "country": "España",
      "lat": 43.607876,
      "lon": -7.921832
    }
  },
  {
    "nombre": "Santa Maria De Mera",
    "codigo": "05131",
    "location": {
      "town": "Ortigueira",
      "province": "Coruña, A",
      "country": "España",
      "lat": 43.64098,
      "lon": -7.916192
    }
  },
  {
    "nombre": "Pontemera",
    "codigo": "05133",
    "location": {
      "town": "Ortigueira",
      "province": "Coruña, A",
      "country": "España",
      "lat": 43.666073,
      "lon": -7.902641
    }
  },
  {
    "nombre": "San Clodio",
    "codigo": "05135",
    "location": {
      "town": "Ribas De Sil",
      "province": "Coruña, A",
      "country": "España",
      "lat": 43.660887,
      "lon": -7.873495
    }
  },
  {
    "nombre": "Serna",
    "codigo": "05137",
    "location": {
      "town": "Ortigueira",
      "province": "Coruña, A",
      "country": "España",
      "lat": 43.668783,
      "lon": -7.8545455
    }
  },
  {
    "nombre": "Ortigueira",
    "codigo": "05139",
    "location": {
      "town": "Ortigueira",
      "province": "Coruña, A",
      "country": "España",
      "lat": 43.686268,
      "lon": -7.849488
    }
  },
  {
    "nombre": "Espasante",
    "codigo": "05141",
    "location": {
      "town": "Ortigueira",
      "province": "Coruña, A",
      "country": "España",
      "lat": 43.70888,
      "lon": -7.804897
    }
  },
  {
    "nombre": "Loiba",
    "codigo": "05143",
    "location": {
      "town": "Ortigueira",
      "province": "Coruña, A",
      "country": "España",
      "lat": 43.730393,
      "lon": -7.750044
    }
  },
  {
    "nombre": "O Barqueiro",
    "codigo": "05145",
    "location": {
      "town": "Mañón",
      "province": "Coruña, A",
      "country": "España",
      "lat": 43.735649,
      "lon": -7.70288
    }
  },
  {
    "nombre": "O Vicedo",
    "codigo": "05147",
    "location": {
      "town": "Vicedo (O)",
      "province": "Lugo",
      "country": "España",
      "lat": 43.731026,
      "lon": -7.673215
    }
  },
  {
    "nombre": "Mosende",
    "codigo": "05149",
    "location": {
      "town": "Vicedo (O)",
      "province": "Lugo",
      "country": "España",
      "lat": 43.706194,
      "lon": -7.635477
    }
  },
  {
    "nombre": "Folgueiro",
    "codigo": "05151",
    "location": {
      "town": "Vicedo (O)",
      "province": "Lugo",
      "country": "España",
      "lat": 43.692766,
      "lon": -7.635048
    }
  },
  {
    "nombre": "Feve-Covas De Viveiro",
    "codigo": "05153",
    "location": {
      "town": "Viveiro",
      "province": "Lugo",
      "country": "España",
      "lat": 43.670275,
      "lon": -7.614613
    }
  },
  {
    "nombre": "Viveiro",
    "codigo": "05155",
    "location": {
      "town": "Viveiro",
      "province": "Lugo",
      "country": "España",
      "lat": 43.6569,
      "lon": -7.60033
    }
  },
  {
    "nombre": "Viveiro Apdro.",
    "codigo": "05156",
    "location": {
      "town": "Viveiro",
      "province": "Lugo",
      "country": "España",
      "lat": 43.661435,
      "lon": -7.594532
    }
  },
  {
    "nombre": "Xuances",
    "codigo": "05157",
    "location": {
      "town": "Xove",
      "province": "Lugo",
      "country": "España",
      "lat": 43.687991,
      "lon": -7.553904
    }
  },
  {
    "nombre": "Xove Pobo",
    "codigo": "05159",
    "location": {
      "town": "Xove",
      "province": "Lugo",
      "country": "España",
      "lat": 43.683567,
      "lon": -7.510921
    }
  },
  {
    "nombre": "Xove",
    "codigo": "05161",
    "location": {
      "town": "Xove",
      "province": "Lugo",
      "country": "España",
      "lat": 43.681138,
      "lon": -7.495251
    }
  },
  {
    "nombre": "Lago",
    "codigo": "05163",
    "location": {
      "town": "Xove",
      "province": "Lugo",
      "country": "España",
      "lat": 43.687108,
      "lon": -7.481942
    }
  },
  {
    "nombre": "Bidueiros",
    "codigo": "05165",
    "location": {
      "town": "Cervo",
      "province": "Lugo",
      "country": "España",
      "lat": 43.696712,
      "lon": -7.468843
    }
  },
  {
    "nombre": "San Cibrao",
    "codigo": "05167",
    "location": {
      "town": "Cervo",
      "province": "Lugo",
      "country": "España",
      "lat": 43.692319,
      "lon": -7.44177
    }
  },
  {
    "nombre": "Madeiro",
    "codigo": "05169",
    "location": {
      "town": "Cervo",
      "province": "Lugo",
      "country": "España",
      "lat": 43.686219,
      "lon": -7.412863
    }
  },
  {
    "nombre": "Burela",
    "codigo": "05171",
    "location": {
      "town": "Burela",
      "province": "Lugo",
      "country": "España",
      "lat": 43.660607,
      "lon": -7.361183
    }
  },
  {
    "nombre": "Cangas De Foz",
    "codigo": "05173",
    "location": {
      "town": "Foz",
      "province": "Lugo",
      "country": "España",
      "lat": 43.626106,
      "lon": -7.333309
    }
  },
  {
    "nombre": "Nois",
    "codigo": "05175",
    "location": {
      "town": "Foz",
      "province": "Lugo",
      "country": "España",
      "lat": 43.610309,
      "lon": -7.312222
    }
  },
  {
    "nombre": "Fazouro",
    "codigo": "05177",
    "location": {
      "town": "Foz",
      "province": "Lugo",
      "country": "España",
      "lat": 43.600457,
      "lon": -7.299843
    }
  },
  {
    "nombre": "Marzán",
    "codigo": "05179",
    "location": {
      "town": "Foz",
      "province": "Lugo",
      "country": "España",
      "lat": 43.57475,
      "lon": -7.26936
    }
  },
  {
    "nombre": "Foz",
    "codigo": "05181",
    "location": {
      "town": "Foz",
      "province": "Lugo",
      "country": "España",
      "lat": 43.560886,
      "lon": -7.272235
    }
  },
  {
    "nombre": "Barreiros",
    "codigo": "05183",
    "location": {
      "town": "Barreiros",
      "province": "Lugo",
      "country": "España",
      "lat": 43.547366,
      "lon": -7.225287
    }
  },
  {
    "nombre": "Reinante",
    "codigo": "05185",
    "location": {
      "town": "Barreiros",
      "province": "Lugo",
      "country": "España",
      "lat": 43.54987,
      "lon": -7.174315
    }
  },
  {
    "nombre": "Esteiro",
    "codigo": "05187",
    "location": {
      "town": "Ribadeo",
      "province": "Lugo",
      "country": "España",
      "lat": 43.551697,
      "lon": -7.146099
    }
  },
  {
    "nombre": "Os Castros",
    "codigo": "05189",
    "location": {
      "town": "Ribadeo",
      "province": "Lugo",
      "country": "España",
      "lat": 43.55157,
      "lon": -7.130895
    }
  },
  {
    "nombre": "Rinlo",
    "codigo": "05191",
    "location": {
      "town": "Ribadeo",
      "province": "Lugo",
      "country": "España",
      "lat": 43.549761,
      "lon": -7.108645
    }
  },
  {
    "nombre": "Ribadeo",
    "codigo": "05193",
    "location": {
      "town": "Ribadeo",
      "province": "Lugo",
      "country": "España",
      "lat": 43.53607,
      "lon": -7.055572
    }
  },
  {
    "nombre": "Vegadeo",
    "codigo": "05195",
    "location": {
      "town": "Vegadeo",
      "province": "Asturias",
      "country": "España",
      "lat": 43.4731616,
      "lon": -7.050645
    }
  },
  {
    "nombre": "A Veiga/Vegadeo",
    "codigo": "05197",
    "location": {
      "town": "Vegadeo",
      "province": "Asturias",
      "country": "España",
      "lat": 43.479667,
      "lon": -7.057327
    }
  },
  {
    "nombre": "Vilavedeye",
    "codigo": "05199",
    "location": {
      "town": "Castropol",
      "province": "Asturias",
      "country": "España",
      "lat": 43.490502,
      "lon": -7.038353
    }
  },
  {
    "nombre": "Gijón Ram",
    "codigo": "05201",
    "location": {
      "town": "Gijón",
      "province": "Asturias",
      "country": "España",
      "lat": 43.535175,
      "lon": -5.698318
    }
  },
  {
    "nombre": "Tremañes-Carreño",
    "codigo": "05203",
    "location": {
      "town": "Gijón",
      "province": "Asturias",
      "country": "España",
      "lat": 43.528549,
      "lon": -5.694869
    }
  },
  {
    "nombre": "Centru De Tresportes",
    "codigo": "05204",
    "location": {
      "town": "Gijón",
      "province": "Asturias",
      "country": "España",
      "lat": 43.531135,
      "lon": -5.706739
    }
  },
  {
    "nombre": "Aboño Apd",
    "codigo": "05207",
    "location": {
      "town": "Carreño",
      "province": "Asturias",
      "country": "España",
      "lat": 43.55505,
      "lon": -5.72359
    }
  },
  {
    "nombre": "Xibares",
    "codigo": "05208",
    "location": {
      "town": "Carreño",
      "province": "Asturias",
      "country": "España",
      "lat": 43.565927,
      "lon": -5.728723
    }
  },
  {
    "nombre": "Perlora",
    "codigo": "05209",
    "location": {
      "town": "Carreño",
      "province": "Asturias",
      "country": "España",
      "lat": 43.58078,
      "lon": -5.75368
    }
  },
  {
    "nombre": "Candás Apd",
    "codigo": "05210",
    "location": {
      "town": "Carreño",
      "province": "Asturias",
      "country": "España",
      "lat": 43.58654,
      "lon": -5.76801
    }
  },
  {
    "nombre": "Candás",
    "codigo": "05211",
    "location": {
      "town": "Carreño",
      "province": "Asturias",
      "country": "España",
      "lat": 43.584718,
      "lon": -5.772722
    }
  },
  {
    "nombre": "El Regueral",
    "codigo": "05213",
    "location": {
      "town": "Carreño",
      "province": "Asturias",
      "country": "España",
      "lat": 43.58048,
      "lon": -5.79763
    }
  },
  {
    "nombre": "San Zabornín",
    "codigo": "05215",
    "location": {
      "town": "Carreño",
      "province": "Asturias",
      "country": "España",
      "lat": 43.56908,
      "lon": -5.82533
    }
  },
  {
    "nombre": "Gudín-Llaminación",
    "codigo": "05216",
    "location": {
      "town": "Corvera De Asturias",
      "province": "Asturias",
      "country": "España",
      "lat": 43.552295,
      "lon": -5.865382
    }
  },
  {
    "nombre": "Trasona/Tresona",
    "codigo": "05217",
    "location": {
      "town": "Corvera De Asturias",
      "province": "Asturias",
      "country": "España",
      "lat": 43.5518,
      "lon": -5.87438
    }
  },
  {
    "nombre": "Oficines",
    "codigo": "05218",
    "location": {
      "town": "Oviedo",
      "province": "Asturias",
      "country": "España",
      "lat": 43.551308,
      "lon": -5.877217
    }
  },
  {
    "nombre": "Llaranes",
    "codigo": "05219",
    "location": {
      "town": "Avilés",
      "province": "Asturias",
      "country": "España",
      "lat": 43.55415,
      "lon": -5.89703
    }
  },
  {
    "nombre": "Cristalería",
    "codigo": "05220",
    "location": {
      "town": "Avilés",
      "province": "Asturias",
      "country": "España",
      "lat": 43.575543,
      "lon": -5.929345
    }
  },
  {
    "nombre": "Avilés Apd",
    "codigo": "05221",
    "location": {
      "town": "Avilés",
      "province": "Asturias",
      "country": "España",
      "lat": 43.554627,
      "lon": -5.917472
    }
  },
  {
    "nombre": "Avilés-Cim",
    "codigo": "05222",
    "location": {
      "town": "Avilés",
      "province": "Asturias",
      "country": "España",
      "lat": 43.561274,
      "lon": -5.922924
    }
  },
  {
    "nombre": "Raíces Nuevo/La Fundición",
    "codigo": "05224",
    "location": {
      "town": "Castrillón",
      "province": "Asturias",
      "country": "España",
      "lat": 43.576334,
      "lon": -5.939915
    }
  },
  {
    "nombre": "Salinas",
    "codigo": "05225",
    "location": {
      "town": "Castrillón",
      "province": "Asturias",
      "country": "España",
      "lat": 43.57039,
      "lon": -5.95663
    }
  },
  {
    "nombre": "Piedrasblancas",
    "codigo": "05227",
    "location": {
      "town": "Castrillón",
      "province": "Asturias",
      "country": "España",
      "lat": 43.556554,
      "lon": -5.975562
    }
  },
  {
    "nombre": "Vegarrozadas",
    "codigo": "05229",
    "location": {
      "town": "Castrillón",
      "province": "Asturias",
      "country": "España",
      "lat": 43.551162,
      "lon": -5.99556
    }
  },
  {
    "nombre": "Santiagu'L Monte",
    "codigo": "05231",
    "location": {
      "town": "Castrillón",
      "province": "Asturias",
      "country": "España",
      "lat": 43.540979,
      "lon": -6.028002
    }
  },
  {
    "nombre": "El Parador",
    "codigo": "05232",
    "location": {
      "town": "Soto Del Barco",
      "province": "Asturias",
      "country": "España",
      "lat": 43.53524,
      "lon": -6.07053
    }
  },
  {
    "nombre": "Sotu'L Barcu",
    "codigo": "05233",
    "location": {
      "town": "Soto Del Barco",
      "province": "Asturias",
      "country": "España",
      "lat": 43.52929,
      "lon": -6.07124
    }
  },
  {
    "nombre": "Riberas",
    "codigo": "05235",
    "location": {
      "town": "Soto Del Barco",
      "province": "Asturias",
      "country": "España",
      "lat": 43.502742,
      "lon": -6.074331
    }
  },
  {
    "nombre": "Peñaullán",
    "codigo": "05237",
    "location": {
      "town": "Pravia",
      "province": "Asturias",
      "country": "España",
      "lat": 43.491163,
      "lon": -6.093979
    }
  },
  {
    "nombre": "Santianes",
    "codigo": "05239",
    "location": {
      "town": "Pravia",
      "province": "Asturias",
      "country": "España",
      "lat": 43.503755,
      "lon": -6.091829
    }
  },
  {
    "nombre": "Los Cabos",
    "codigo": "05241",
    "location": {
      "town": "Pravia",
      "province": "Asturias",
      "country": "España",
      "lat": 43.512444,
      "lon": -6.097514
    }
  },
  {
    "nombre": "Muros De Nalón",
    "codigo": "05243",
    "location": {
      "town": "Muros De Nalón",
      "province": "Asturias",
      "country": "España",
      "lat": 43.542957,
      "lon": -6.111114
    }
  },
  {
    "nombre": "El Pito-Piñera",
    "codigo": "05244",
    "location": {
      "town": "Cudillero",
      "province": "Asturias",
      "country": "España",
      "lat": 43.546893,
      "lon": -6.143335
    }
  },
  {
    "nombre": "Cudillero",
    "codigo": "05245",
    "location": {
      "town": "Cudillero",
      "province": "Asturias",
      "country": "España",
      "lat": 43.550925,
      "lon": -6.151968
    }
  },
  {
    "nombre": "Villademar",
    "codigo": "05247",
    "location": {
      "town": "Cudillero",
      "province": "Asturias",
      "country": "España",
      "lat": 43.557065,
      "lon": -6.155477
    }
  },
  {
    "nombre": "La Magdalena",
    "codigo": "05249",
    "location": {
      "town": "Cudillero",
      "province": "Asturias",
      "country": "España",
      "lat": 43.559309,
      "lon": -6.184922
    }
  },
  {
    "nombre": "San Martín De Luiña",
    "codigo": "05251",
    "location": {
      "town": "Cudillero",
      "province": "Asturias",
      "country": "España",
      "lat": 43.544753,
      "lon": -6.228702
    }
  },
  {
    "nombre": "San Cosme",
    "codigo": "05253",
    "location": {
      "town": "Cudillero",
      "province": "Asturias",
      "country": "España",
      "lat": 43.544069,
      "lon": -6.248091
    }
  },
  {
    "nombre": "Soto De Luiña",
    "codigo": "05255",
    "location": {
      "town": "Cudillero",
      "province": "Asturias",
      "country": "España",
      "lat": 43.559635,
      "lon": -6.234369
    }
  },
  {
    "nombre": "Valdredo",
    "codigo": "05257",
    "location": {
      "town": "Cudillero",
      "province": "Asturias",
      "country": "España",
      "lat": 43.56638,
      "lon": -6.263234
    }
  },
  {
    "nombre": "Novellana",
    "codigo": "05259",
    "location": {
      "town": "Cudillero",
      "province": "Asturias",
      "country": "España",
      "lat": 43.557795,
      "lon": -6.289593
    }
  },
  {
    "nombre": "Santa Marina",
    "codigo": "05261",
    "location": {
      "town": "Cudillero",
      "province": "Asturias",
      "country": "España",
      "lat": 43.552674,
      "lon": -6.305181
    }
  },
  {
    "nombre": "Ballota",
    "codigo": "05263",
    "location": {
      "town": "Cudillero",
      "province": "Asturias",
      "country": "España",
      "lat": 43.550716,
      "lon": -6.322812
    }
  },
  {
    "nombre": "Tablizu",
    "codigo": "05265",
    "location": {
      "town": "Valdés",
      "province": "Asturias",
      "country": "España",
      "lat": 43.547253,
      "lon": -6.351225
    }
  },
  {
    "nombre": "Cadavéu",
    "codigo": "05267",
    "location": {
      "town": "Valdés",
      "province": "Asturias",
      "country": "España",
      "lat": 43.542952,
      "lon": -6.391612
    }
  },
  {
    "nombre": "San Cristuébanu",
    "codigo": "05269",
    "location": {
      "town": "Valdés",
      "province": "Asturias",
      "country": "España",
      "lat": 43.547225,
      "lon": -6.415264
    }
  },
  {
    "nombre": "Caneiru",
    "codigo": "05271",
    "location": {
      "town": "Valdés",
      "province": "Asturias",
      "country": "España",
      "lat": 43.541913,
      "lon": -6.445878
    }
  },
  {
    "nombre": "Barcia",
    "codigo": "05273",
    "location": {
      "town": "Valdés",
      "province": "Asturias",
      "country": "España",
      "lat": 43.546813,
      "lon": -6.50828
    }
  },
  {
    "nombre": "Luarca/L.Luarca",
    "codigo": "05275",
    "location": {
      "town": "Valdés",
      "province": "Asturias",
      "country": "España",
      "lat": 43.537949,
      "lon": -6.536617
    }
  },
  {
    "nombre": "Outur",
    "codigo": "05277",
    "location": {
      "town": "Valdés",
      "province": "Asturias",
      "country": "España",
      "lat": 43.540541,
      "lon": -6.593562
    }
  },
  {
    "nombre": "Villapedre",
    "codigo": "05279",
    "location": {
      "town": "Navia",
      "province": "Asturias",
      "country": "España",
      "lat": 43.546723,
      "lon": -6.64587
    }
  },
  {
    "nombre": "Piñera - Villaoril",
    "codigo": "05281",
    "location": {
      "town": "Navia",
      "province": "Asturias",
      "country": "España",
      "lat": 43.535685,
      "lon": -6.685414
    }
  },
  {
    "nombre": "Navia",
    "codigo": "05283",
    "location": {
      "town": "Navia",
      "province": "Asturias",
      "country": "España",
      "lat": 43.536802,
      "lon": -6.719425
    }
  },
  {
    "nombre": "Medal",
    "codigo": "05285",
    "location": {
      "town": "Coaña",
      "province": "Asturias",
      "country": "España",
      "lat": 43.545692,
      "lon": -6.752994
    }
  },
  {
    "nombre": "Lloza",
    "codigo": "05287",
    "location": {
      "town": "Coaña",
      "province": "Asturias",
      "country": "España",
      "lat": 43.551254,
      "lon": -6.771675
    }
  },
  {
    "nombre": "Cartavio",
    "codigo": "05289",
    "location": {
      "town": "Coaña",
      "province": "Asturias",
      "country": "España",
      "lat": 43.550714,
      "lon": -6.789622
    }
  },
  {
    "nombre": "A Caridá",
    "codigo": "05291",
    "location": {
      "town": "Franco (EL)",
      "province": "Asturias",
      "country": "España",
      "lat": 43.547074,
      "lon": -6.827541
    }
  },
  {
    "nombre": "Tapia",
    "codigo": "05293",
    "location": {
      "town": "Tapia De Casariego",
      "province": "Asturias",
      "country": "España",
      "lat": 43.535026,
      "lon": -6.909329
    }
  },
  {
    "nombre": "Tol",
    "codigo": "05295",
    "location": {
      "town": "Castropol",
      "province": "Asturias",
      "country": "España",
      "lat": 43.527204,
      "lon": -6.952128
    }
  },
  {
    "nombre": "Les Campes",
    "codigo": "05297",
    "location": {
      "town": "Castropol",
      "province": "Asturias",
      "country": "España",
      "lat": 43.36383,
      "lon": -5.88346
    }
  },
  {
    "nombre": "Castropol",
    "codigo": "05299",
    "location": {
      "town": "Castropol",
      "province": "Asturias",
      "country": "España",
      "lat": 43.5095861,
      "lon": -7.0147697
    }
  },
  {
    "nombre": "El Vallobín",
    "codigo": "05300",
    "location": {
      "town": "Oviedo",
      "province": "Asturias",
      "country": "España",
      "lat": 43.3653,
      "lon": -5.8649
    }
  },
  {
    "nombre": "L'Argañosa - Llapiés",
    "codigo": "05301",
    "location": {
      "town": "Oviedo",
      "province": "Asturias",
      "country": "España",
      "lat": 43.365832,
      "lon": -5.870018
    }
  },
  {
    "nombre": "As Campas",
    "codigo": "05302",
    "location": {
      "town": "Oviedo",
      "province": "Asturias",
      "country": "España",
      "lat": 43.36383,
      "lon": -5.88346
    }
  },
  {
    "nombre": "Les Maces",
    "codigo": "05303",
    "location": {
      "town": "Oviedo",
      "province": "Asturias",
      "country": "España",
      "lat": 43.35867,
      "lon": -5.89756
    }
  },
  {
    "nombre": "San Claudio/San Cloyo",
    "codigo": "05304",
    "location": {
      "town": "Oviedo",
      "province": "Asturias",
      "country": "España",
      "lat": 43.355333,
      "lon": -5.917811
    }
  },
  {
    "nombre": "Fuso De La Reina",
    "codigo": "05305",
    "location": {
      "town": "Oviedo",
      "province": "Asturias",
      "country": "España",
      "lat": null,
      "lon": null
    }
  },
  {
    "nombre": "San Pedru Nora",
    "codigo": "05306",
    "location": {
      "town": "Oviedo",
      "province": "Asturias",
      "country": "España",
      "lat": 43.36874,
      "lon": -5.9588
    }
  },
  {
    "nombre": "Sotu-Udrión",
    "codigo": "05308",
    "location": {
      "town": "Oviedo",
      "province": "Asturias",
      "country": "España",
      "lat": 43.355707,
      "lon": -5.965352
    }
  },
  {
    "nombre": "Caces",
    "codigo": "05309",
    "location": {
      "town": "Oviedo",
      "province": "Asturias",
      "country": "España",
      "lat": null,
      "lon": null
    }
  },
  {
    "nombre": "Trubia",
    "codigo": "05311",
    "location": {
      "town": "Oviedo",
      "province": "Asturias",
      "country": "España",
      "lat": 43.34853,
      "lon": -5.96765
    }
  },
  {
    "nombre": "Santa María Grau",
    "codigo": "05313",
    "location": {
      "town": "Grado",
      "province": "Asturias",
      "country": "España",
      "lat": 43.38379,
      "lon": -5.98263
    }
  },
  {
    "nombre": "Veiga D'Anzu",
    "codigo": "05315",
    "location": {
      "town": "Grado",
      "province": "Asturias",
      "country": "España",
      "lat": 43.38935,
      "lon": -6.00586
    }
  },
  {
    "nombre": "Peñaflor",
    "codigo": "05316",
    "location": {
      "town": "Grado",
      "province": "Asturias",
      "country": "España",
      "lat": 43.402931,
      "lon": -6.045405
    }
  },
  {
    "nombre": "Grau/Grado",
    "codigo": "05317",
    "location": {
      "town": "Grado",
      "province": "Asturias",
      "country": "España",
      "lat": 43.39453,
      "lon": -6.06372
    }
  },
  {
    "nombre": "Sandiche",
    "codigo": "05319",
    "location": {
      "town": "Candamo",
      "province": "Asturias",
      "country": "España",
      "lat": 43.425605,
      "lon": -6.05996
    }
  },
  {
    "nombre": "Aces",
    "codigo": "05320",
    "location": {
      "town": "Candamo",
      "province": "Asturias",
      "country": "España",
      "lat": 43.439928,
      "lon": -6.065789
    }
  },
  {
    "nombre": "San Román",
    "codigo": "05321",
    "location": {
      "town": "Candamo",
      "province": "Asturias",
      "country": "España",
      "lat": 43.448956,
      "lon": -6.077283
    }
  },
  {
    "nombre": "Beifar",
    "codigo": "05323",
    "location": {
      "town": "Pravia",
      "province": "Asturias",
      "country": "España",
      "lat": 43.470084,
      "lon": -6.098877
    }
  },
  {
    "nombre": "Pravia",
    "codigo": "05325",
    "location": {
      "town": "Pravia",
      "province": "Asturias",
      "country": "España",
      "lat": 43.49097,
      "lon": -6.11062
    }
  },
  {
    "nombre": "San Ranón",
    "codigo": "05327",
    "location": {
      "town": "Pravia",
      "province": "Asturias",
      "country": "España",
      "lat": 43.516494,
      "lon": -6.082065
    }
  },
  {
    "nombre": "San Esteban",
    "codigo": "05329",
    "location": {
      "town": "Muros De Nalón",
      "province": "Asturias",
      "country": "España",
      "lat": 43.552084,
      "lon": -6.087238
    }
  },
  {
    "nombre": "Palomar",
    "codigo": "05351",
    "location": {
      "town": "Ribera De Arriba",
      "province": "Asturias",
      "country": "España",
      "lat": 43.309911,
      "lon": -5.912549
    }
  },
  {
    "nombre": "Soto De Ribera",
    "codigo": "05353",
    "location": {
      "town": "Ribera De Arriba",
      "province": "Asturias",
      "country": "España",
      "lat": null,
      "lon": null
    }
  },
  {
    "nombre": "Parteayer",
    "codigo": "05355",
    "location": {
      "town": "Morcín",
      "province": "Asturias",
      "country": "España",
      "lat": 43.28332,
      "lon": -5.87513
    }
  },
  {
    "nombre": "Baíña",
    "codigo": "05361",
    "location": {
      "town": "Mieres",
      "province": "Asturias",
      "country": "España",
      "lat": 43.274515,
      "lon": -5.828206
    }
  },
  {
    "nombre": "Mieres Del Camín-El Vasco",
    "codigo": "05369",
    "location": {
      "town": "Mieres",
      "province": "Asturias",
      "country": "España",
      "lat": 43.25028,
      "lon": -5.77999
    }
  },
  {
    "nombre": "Santuyano-Caudalia",
    "codigo": "05371",
    "location": {
      "town": "Mieres",
      "province": "Asturias",
      "country": "España",
      "lat": 43.22628,
      "lon": -5.78332
    }
  },
  {
    "nombre": "Figareo",
    "codigo": "05373",
    "location": {
      "town": "Aller",
      "province": "Asturias",
      "country": "España",
      "lat": 43.213957,
      "lon": -5.783983
    }
  },
  {
    "nombre": "Uxo-Taruelo",
    "codigo": "05375",
    "location": {
      "town": "Mieres",
      "province": "Asturias",
      "country": "España",
      "lat": 43.2006,
      "lon": -5.78765
    }
  },
  {
    "nombre": "Santa Cruz",
    "codigo": "05376",
    "location": {
      "town": "Mieres",
      "province": "Asturias",
      "country": "España",
      "lat": 43.195945,
      "lon": -5.777546
    }
  },
  {
    "nombre": "Caborana",
    "codigo": "05377",
    "location": {
      "town": "Aller",
      "province": "Asturias",
      "country": "España",
      "lat": 43.176021,
      "lon": -5.754709
    }
  },
  {
    "nombre": "Morea/Moreda",
    "codigo": "05379",
    "location": {
      "town": "Aller",
      "province": "Asturias",
      "country": "España",
      "lat": 43.17078,
      "lon": -5.741892
    }
  },
  {
    "nombre": "San Antonio",
    "codigo": "05380",
    "location": {
      "town": "Aller",
      "province": "Asturias",
      "country": "España",
      "lat": 43.16889,
      "lon": -5.696771
    }
  },
  {
    "nombre": "L'Oyanco",
    "codigo": "05381",
    "location": {
      "town": "Aller",
      "province": "Asturias",
      "country": "España",
      "lat": 43.16654,
      "lon": -5.72178
    }
  },
  {
    "nombre": "Corigos",
    "codigo": "05382",
    "location": {
      "town": "Aller",
      "province": "Asturias",
      "country": "España",
      "lat": 43.16428,
      "lon": -5.67666
    }
  },
  {
    "nombre": "Piñeres",
    "codigo": "05383",
    "location": {
      "town": "Aller",
      "province": "Asturias",
      "country": "España",
      "lat": 43.16597,
      "lon": -5.68425
    }
  },
  {
    "nombre": "Santana - Soto",
    "codigo": "05384",
    "location": {
      "town": "Ribera De Arriba",
      "province": "Asturias",
      "country": "España",
      "lat": 43.16478,
      "lon": -5.646112
    }
  },
  {
    "nombre": "Cabañaquinta/Cabanaquinta",
    "codigo": "05385",
    "location": {
      "town": "Aller",
      "province": "Asturias",
      "country": "España",
      "lat": 43.16083,
      "lon": -5.62491
    }
  },
  {
    "nombre": "L.Levinco",
    "codigo": "05387",
    "location": {
      "town": "Aller",
      "province": "Asturias",
      "country": "España",
      "lat": 43.151098,
      "lon": -5.600266
    }
  },
  {
    "nombre": "Col.Lanzo",
    "codigo": "05389",
    "location": {
      "town": "Aller",
      "province": "Asturias",
      "country": "España",
      "lat": 43.124043,
      "lon": -5.566384
    }
  },
  {
    "nombre": "La Braña",
    "codigo": "05401",
    "location": {
      "town": "Gijón",
      "province": "Asturias",
      "country": "España",
      "lat": null,
      "lon": null
    }
  },
  {
    "nombre": "Tremañes-Llangréu/Langreo",
    "codigo": "05403",
    "location": {
      "town": "Gijón",
      "province": "Asturias",
      "country": "España",
      "lat": 43.528766,
      "lon": -5.694847
    }
  },
  {
    "nombre": "Sotiello",
    "codigo": "05405",
    "location": {
      "town": "Gijón",
      "province": "Asturias",
      "country": "España",
      "lat": 43.507289,
      "lon": -5.726564
    }
  },
  {
    "nombre": "Pinzales",
    "codigo": "05407",
    "location": {
      "town": "Gijón",
      "province": "Asturias",
      "country": "España",
      "lat": 43.486585,
      "lon": -5.719696
    }
  },
  {
    "nombre": "Aguda",
    "codigo": "05409",
    "location": {
      "town": "Gijón",
      "province": "Asturias",
      "country": "España",
      "lat": 43.46603,
      "lon": -5.72606
    }
  },
  {
    "nombre": "Xixún",
    "codigo": "05410",
    "location": {
      "town": "Siero",
      "province": "Asturias",
      "country": "España",
      "lat": 43.370778,
      "lon": -5.69338
    }
  },
  {
    "nombre": "La Florida",
    "codigo": "05411",
    "location": {
      "town": "Siero",
      "province": "Asturias",
      "country": "España",
      "lat": 43.43459,
      "lon": -5.71
    }
  },
  {
    "nombre": "Puente Buracos",
    "codigo": "05412",
    "location": {
      "town": "Siero",
      "province": "Asturias",
      "country": "España",
      "lat": 43.44811,
      "lon": -5.71739
    }
  },
  {
    "nombre": "Noreña",
    "codigo": "05413",
    "location": {
      "town": "Noreña",
      "province": "Asturias",
      "country": "España",
      "lat": 43.39398,
      "lon": -5.70371
    }
  },
  {
    "nombre": "Bendición",
    "codigo": "05415",
    "location": {
      "town": "Siero",
      "province": "Asturias",
      "country": "España",
      "lat": 43.363371,
      "lon": -5.68034
    }
  },
  {
    "nombre": "Valdesoto",
    "codigo": "05416",
    "location": {
      "town": "Siero",
      "province": "Asturias",
      "country": "España",
      "lat": 43.358416,
      "lon": -5.65859
    }
  },
  {
    "nombre": "Carbayín",
    "codigo": "05417",
    "location": {
      "town": "Siero",
      "province": "Asturias",
      "country": "España",
      "lat": 43.351168,
      "lon": -5.634756
    }
  },
  {
    "nombre": "Curuxona",
    "codigo": "05420",
    "location": {
      "town": "Siero",
      "province": "Asturias",
      "country": "España",
      "lat": 43.339403,
      "lon": -5.63081
    }
  },
  {
    "nombre": "Tiuya/Tuilla",
    "codigo": "05421",
    "location": {
      "town": "Langreo",
      "province": "Asturias",
      "country": "España",
      "lat": 43.328069,
      "lon": -5.643052
    }
  },
  {
    "nombre": "La Felguera - Vega",
    "codigo": "05425",
    "location": {
      "town": "Langreo",
      "province": "Asturias",
      "country": "España",
      "lat": 43.31052,
      "lon": -5.6859
    }
  },
  {
    "nombre": "Sama - Los Llerones",
    "codigo": "05429",
    "location": {
      "town": "Langreo",
      "province": "Asturias",
      "country": "España",
      "lat": 43.298761,
      "lon": -5.683358
    }
  },
  {
    "nombre": "Ciañu",
    "codigo": "05431",
    "location": {
      "town": "Langreo",
      "province": "Asturias",
      "country": "España",
      "lat": 43.290721,
      "lon": -5.667903
    }
  },
  {
    "nombre": "San Vicente",
    "codigo": "05432",
    "location": {
      "town": "San Martín Del Rey Aurelio",
      "province": "Asturias",
      "country": "España",
      "lat": 43.28911,
      "lon": -5.65285
    }
  },
  {
    "nombre": "L'Entregu-La Escura",
    "codigo": "05433",
    "location": {
      "town": "San Martín Del Rey Aurelio",
      "province": "Asturias",
      "country": "España",
      "lat": 43.289509,
      "lon": -5.640809
    }
  },
  {
    "nombre": "Carrocera",
    "codigo": "05435",
    "location": {
      "town": "San Martín Del Rey Aurelio",
      "province": "Asturias",
      "country": "España",
      "lat": 43.28774,
      "lon": -5.62637
    }
  },
  {
    "nombre": "Samartín",
    "codigo": "05436",
    "location": {
      "town": "San Martín Del Rey Aurelio",
      "province": "Asturias",
      "country": "España",
      "lat": 43.278378,
      "lon": -5.615305
    }
  },
  {
    "nombre": "Sotrondio",
    "codigo": "05437",
    "location": {
      "town": "San Martín Del Rey Aurelio",
      "province": "Asturias",
      "country": "España",
      "lat": 43.27578,
      "lon": -5.60481
    }
  },
  {
    "nombre": "Blimea",
    "codigo": "05439",
    "location": {
      "town": "San Martín Del Rey Aurelio",
      "province": "Asturias",
      "country": "España",
      "lat": 43.27082,
      "lon": -5.5903
    }
  },
  {
    "nombre": "Los Barreros/Barredos",
    "codigo": "05441",
    "location": {
      "town": "Laviana",
      "province": "Asturias",
      "country": "España",
      "lat": 43.25987,
      "lon": -5.57504
    }
  },
  {
    "nombre": "La Pola De Llaviana/Pola De Laviana",
    "codigo": "05443",
    "location": {
      "town": "Laviana",
      "province": "Asturias",
      "country": "España",
      "lat": 43.25068,
      "lon": -5.56449
    }
  },
  {
    "nombre": "Bilbao La Concordia",
    "codigo": "05451",
    "location": {
      "town": "Bilbao",
      "province": "Bizkaia",
      "country": "España",
      "lat": 43.259998,
      "lon": -2.926286
    }
  },
  {
    "nombre": "Basurto Hospital",
    "codigo": "05455",
    "location": {
      "town": "Bilbao",
      "province": "Bizkaia",
      "country": "España",
      "lat": 43.259754,
      "lon": -2.953828
    }
  },
  {
    "nombre": "Feve-Zorroza Zorrozgoiti",
    "codigo": "05457",
    "location": {
      "town": "Bilbao",
      "province": "Bizkaia",
      "country": "España",
      "lat": 43.273951,
      "lon": -2.974167
    }
  },
  {
    "nombre": "Santa Agueda",
    "codigo": "05459",
    "location": {
      "town": "Bilbao",
      "province": "Bizkaia",
      "country": "España",
      "lat": 43.261854,
      "lon": -2.973004
    }
  },
  {
    "nombre": "Kastrexana",
    "codigo": "05460",
    "location": {
      "town": "Bilbao",
      "province": "Bizkaia",
      "country": "España",
      "lat": 43.255361,
      "lon": -2.972073
    }
  },
  {
    "nombre": "Irauregui",
    "codigo": "05461",
    "location": {
      "town": "Alonsotegi",
      "province": "Bizkaia",
      "country": "España",
      "lat": 43.248317,
      "lon": -2.990089
    }
  },
  {
    "nombre": "Zaramillo",
    "codigo": "05463",
    "location": {
      "town": "Güeñes",
      "province": "Bizkaia",
      "country": "España",
      "lat": 43.233225,
      "lon": -3.016037
    }
  },
  {
    "nombre": "La Quadra",
    "codigo": "05465",
    "location": {
      "town": "Güeñes",
      "province": "Bizkaia",
      "country": "España",
      "lat": 43.222712,
      "lon": -3.024874
    }
  },
  {
    "nombre": "Sodupe",
    "codigo": "05467",
    "location": {
      "town": "Güeñes",
      "province": "Bizkaia",
      "country": "España",
      "lat": 43.202057,
      "lon": -3.050494
    }
  },
  {
    "nombre": "Artxube",
    "codigo": "05469",
    "location": {
      "town": "Güeñes",
      "province": "Bizkaia",
      "country": "España",
      "lat": 43.201091,
      "lon": -3.071677
    }
  },
  {
    "nombre": "Lambarri",
    "codigo": "05470",
    "location": {
      "town": "Güeñes",
      "province": "Bizkaia",
      "country": "España",
      "lat": 43.205985,
      "lon": -3.08262
    }
  },
  {
    "nombre": "Güeñes",
    "codigo": "05471",
    "location": {
      "town": "Güeñes",
      "province": "Bizkaia",
      "country": "España",
      "lat": 43.20908,
      "lon": -3.095381
    }
  },
  {
    "nombre": "Aranguren",
    "codigo": "05473",
    "location": {
      "town": "Zalla",
      "province": "Bizkaia",
      "country": "España",
      "lat": 43.210494,
      "lon": -3.109354
    }
  },
  {
    "nombre": "Aranguren/Apdro.",
    "codigo": "05474",
    "location": {
      "town": "Zalla",
      "province": "Bizkaia",
      "country": "España",
      "lat": 43.210347,
      "lon": -3.114075
    }
  },
  {
    "nombre": "Zalla",
    "codigo": "05475",
    "location": {
      "town": "Zalla",
      "province": "Bizkaia",
      "country": "España",
      "lat": 43.212797,
      "lon": -3.133284
    }
  },
  {
    "nombre": "Colegio",
    "codigo": "05477",
    "location": {
      "town": "Zalla",
      "province": "Bizkaia",
      "country": "España",
      "lat": 43.210884,
      "lon": -3.138703
    }
  },
  {
    "nombre": "Ibarra",
    "codigo": "05479",
    "location": {
      "town": "Zalla",
      "province": "Bizkaia",
      "country": "España",
      "lat": 43.203957,
      "lon": -3.144831
    }
  },
  {
    "nombre": "Bolumburu",
    "codigo": "05480",
    "location": {
      "town": "Zalla",
      "province": "Bizkaia",
      "country": "España",
      "lat": 43.199986,
      "lon": -3.150469
    }
  },
  {
    "nombre": "La Herrera",
    "codigo": "05481",
    "location": {
      "town": "Zalla",
      "province": "Bizkaia",
      "country": "España",
      "lat": 43.203182,
      "lon": -3.170446
    }
  },
  {
    "nombre": "Balmaseda",
    "codigo": "05483",
    "location": {
      "town": "Balmaseda",
      "province": "Bizkaia",
      "country": "España",
      "lat": 43.196388,
      "lon": -3.189924
    }
  },
  {
    "nombre": "Mimetiz",
    "codigo": "05484",
    "location": {
      "town": "Zalla",
      "province": "Bizkaia",
      "country": "España",
      "lat": 43.2132627,
      "lon": -3.1352774
    }
  },
  {
    "nombre": "La Calzada",
    "codigo": "05485",
    "location": {
      "town": "Balmaseda",
      "province": "Bizkaia",
      "country": "España",
      "lat": 43.190121,
      "lon": -3.19716
    }
  },
  {
    "nombre": "Traslaviña",
    "codigo": "05487",
    "location": {
      "town": "Artzentales",
      "province": "Bizkaia",
      "country": "España",
      "lat": 43.23329,
      "lon": -3.198304
    }
  },
  {
    "nombre": "Arzentales",
    "codigo": "05489",
    "location": {
      "town": "Erriberagoitia/Ribera Alta",
      "province": "Bizkaia",
      "country": "España",
      "lat": 43.25,
      "lon": -3.22
    }
  },
  {
    "nombre": "Villaverde De Trucios",
    "codigo": "05493",
    "location": {
      "town": "Trucios-Turtzioz",
      "province": "Bizkaia",
      "country": "España",
      "lat": 43.24128,
      "lon": -3.25054
    }
  },
  {
    "nombre": "Karranza",
    "codigo": "05497",
    "location": {
      "town": "Karrantza Harana/Valle De Carranza",
      "province": "Bizkaia",
      "country": "España",
      "lat": 43.238854,
      "lon": -3.357827
    }
  },
  {
    "nombre": "Oviedo Ram",
    "codigo": "05501",
    "location": {
      "town": "Oviedo",
      "province": "Asturias",
      "country": "España",
      "lat": 43.366841,
      "lon": -5.854263
    }
  },
  {
    "nombre": "La Corredoria Ram",
    "codigo": "05503",
    "location": {
      "town": "Oviedo",
      "country": "España",
      "lat": null,
      "lon": null
    }
  },
  {
    "nombre": "Parque Principado",
    "codigo": "05504",
    "location": {
      "town": "Oviedo",
      "province": "Asturias",
      "country": "España",
      "lat": 43.38681,
      "lon": -5.80889
    }
  },
  {
    "nombre": "Colloto/Cualloto",
    "codigo": "05505",
    "location": {
      "town": "Siero",
      "province": "Asturias",
      "country": "España",
      "lat": 43.37944,
      "lon": -5.79225
    }
  },
  {
    "nombre": "Meres",
    "codigo": "05507",
    "location": {
      "town": "Siero",
      "province": "Asturias",
      "country": "España",
      "lat": 43.3807153,
      "lon": -5.7488323
    }
  },
  {
    "nombre": "Fonciello",
    "codigo": "05508",
    "location": {
      "town": "Siero",
      "province": "Asturias",
      "country": "España",
      "lat": 43.3817019,
      "lon": -5.7296665
    }
  },
  {
    "nombre": "El Berrón",
    "codigo": "05509",
    "location": {
      "town": "Siero",
      "province": "Asturias",
      "country": "España",
      "lat": 43.382525,
      "lon": -5.702655
    }
  },
  {
    "nombre": "La Carrera",
    "codigo": "05511",
    "location": {
      "town": "Siero",
      "province": "Asturias",
      "country": "España",
      "lat": 43.386909,
      "lon": -5.675275
    }
  },
  {
    "nombre": "La Pola Siero",
    "codigo": "05513",
    "location": {
      "town": "Siero",
      "province": "Asturias",
      "country": "España",
      "lat": 43.388113,
      "lon": -5.664779
    }
  },
  {
    "nombre": "Los Corros",
    "codigo": "05515",
    "location": {
      "town": "Siero",
      "province": "Asturias",
      "country": "España",
      "lat": 43.376828,
      "lon": -5.601385
    }
  },
  {
    "nombre": "Lieres",
    "codigo": "05517",
    "location": {
      "town": "Siero",
      "province": "Asturias",
      "country": "España",
      "lat": 43.38058,
      "lon": -5.582573
    }
  },
  {
    "nombre": "Rianes",
    "codigo": "05519",
    "location": {
      "town": "Riaño",
      "province": "Asturias",
      "country": "España",
      "lat": 43.3789387,
      "lon": -5.5628276
    }
  },
  {
    "nombre": "El Remediu",
    "codigo": "05521",
    "location": {
      "town": "Nava",
      "province": "Asturias",
      "country": "España",
      "lat": 43.375076,
      "lon": -5.546238
    }
  },
  {
    "nombre": "Llames",
    "codigo": "05522",
    "location": {
      "town": "Nava",
      "province": "Asturias",
      "country": "España",
      "lat": 43.36878,
      "lon": -5.52566
    }
  },
  {
    "nombre": "Nava",
    "codigo": "05523",
    "location": {
      "town": "Nava",
      "province": "Asturias",
      "country": "España",
      "lat": 43.36117,
      "lon": -5.50929
    }
  },
  {
    "nombre": "Fuentesanta/Huentesanta",
    "codigo": "05525",
    "location": {
      "town": "Nava",
      "province": "Asturias",
      "country": "España",
      "lat": 43.35547,
      "lon": -5.47824
    }
  },
  {
    "nombre": "Ceceda/Cecea",
    "codigo": "05527",
    "location": {
      "town": "Nava",
      "province": "Asturias",
      "country": "España",
      "lat": 43.35618,
      "lon": -5.45117
    }
  },
  {
    "nombre": "Carancos",
    "codigo": "05529",
    "location": {
      "town": "Nava",
      "province": "Asturias",
      "country": "España",
      "lat": 43.355586,
      "lon": -5.434425
    }
  },
  {
    "nombre": "Pintueles",
    "codigo": "05531",
    "location": {
      "town": "Piloña",
      "province": "Asturias",
      "country": "España",
      "lat": 43.361448,
      "lon": -5.387496
    }
  },
  {
    "nombre": "L'Infiestu",
    "codigo": "05533",
    "location": {
      "town": "Piloña",
      "province": "Asturias",
      "country": "España",
      "lat": 43.351777,
      "lon": -5.36921
    }
  },
  {
    "nombre": "L'Infiestu Apd",
    "codigo": "05534",
    "location": {
      "town": "Piloña",
      "province": "Asturias",
      "country": "España",
      "lat": 43.343895,
      "lon": -5.357283
    }
  },
  {
    "nombre": "Villamayor",
    "codigo": "05535",
    "location": {
      "town": "Piloña",
      "province": "Asturias",
      "country": "España",
      "lat": 43.3631,
      "lon": -5.30285
    }
  },
  {
    "nombre": "Sebares",
    "codigo": "05537",
    "location": {
      "town": "Piloña",
      "province": "Asturias",
      "country": "España",
      "lat": 43.36236,
      "lon": -5.2574
    }
  },
  {
    "nombre": "Sotu",
    "codigo": "05539",
    "location": {
      "town": "Parres",
      "province": "Asturias",
      "country": "España",
      "lat": 43.3583,
      "lon": -5.22689
    }
  },
  {
    "nombre": "Ozanes",
    "codigo": "05541",
    "location": {
      "town": "Parres",
      "province": "Asturias",
      "country": "España",
      "lat": 43.368395,
      "lon": -5.185191
    }
  },
  {
    "nombre": "Policlínicu",
    "codigo": "05542",
    "location": {
      "town": "Parres",
      "province": "Asturias",
      "country": "España",
      "lat": 43.378622,
      "lon": -5.18603
    }
  },
  {
    "nombre": "Arriondas/Les Arriondes",
    "codigo": "05543",
    "location": {
      "town": "Parres",
      "province": "Asturias",
      "country": "España",
      "lat": 43.387513,
      "lon": -5.188258
    }
  },
  {
    "nombre": "H.Uentes",
    "codigo": "05545",
    "location": {
      "town": "Parres",
      "province": "Asturias",
      "country": "España",
      "lat": 43.401443,
      "lon": -5.143117
    }
  },
  {
    "nombre": "Torañu",
    "codigo": "05547",
    "location": {
      "town": "Parres",
      "province": "Asturias",
      "country": "España",
      "lat": 43.412281,
      "lon": -5.118013
    }
  },
  {
    "nombre": "Cueves",
    "codigo": "05549",
    "location": {
      "town": "Ribadesella",
      "province": "Asturias",
      "country": "España",
      "lat": 43.431144,
      "lon": -5.073302
    }
  },
  {
    "nombre": "Lloviu",
    "codigo": "05551",
    "location": {
      "town": "Ribadesella",
      "province": "Asturias",
      "country": "España",
      "lat": 43.440563,
      "lon": -5.055592
    }
  },
  {
    "nombre": "Ribadesella Puerto",
    "codigo": "05552",
    "location": {
      "town": "Ribadesella",
      "province": "Asturias",
      "country": "España",
      "lat": 43.4586649,
      "lon": -5.0568797
    }
  },
  {
    "nombre": "Ribadesella/Ribeseya",
    "codigo": "05553",
    "location": {
      "town": "Ribadesella",
      "province": "Asturias",
      "country": "España",
      "lat": 43.45945,
      "lon": -5.0545
    }
  },
  {
    "nombre": "Camangu",
    "codigo": "05555",
    "location": {
      "town": "Ribadesella",
      "province": "Asturias",
      "country": "España",
      "lat": 43.44821,
      "lon": -5.01882
    }
  },
  {
    "nombre": "Belmonte",
    "codigo": "05557",
    "location": {
      "town": "Llanes",
      "province": "Asturias",
      "country": "España",
      "lat": 43.4398,
      "lon": -4.98228
    }
  },
  {
    "nombre": "Nueva",
    "codigo": "05559",
    "location": {
      "town": "Llanes",
      "province": "Asturias",
      "country": "España",
      "lat": 43.440585,
      "lon": -4.935531
    }
  },
  {
    "nombre": "Villahormes",
    "codigo": "05561",
    "location": {
      "town": "Llanes",
      "province": "Asturias",
      "country": "España",
      "lat": 43.4420099,
      "lon": -4.90383
    }
  },
  {
    "nombre": "Posada",
    "codigo": "05563",
    "location": {
      "town": "Llanes",
      "province": "Asturias",
      "country": "España",
      "lat": 43.42483,
      "lon": -4.865
    }
  },
  {
    "nombre": "Valmori",
    "codigo": "05565",
    "location": {
      "town": "Llanes",
      "province": "Asturias",
      "country": "España",
      "lat": 43.42147,
      "lon": -4.83583
    }
  },
  {
    "nombre": "Celoriu",
    "codigo": "05567",
    "location": {
      "town": "Llanes",
      "province": "Asturias",
      "country": "España",
      "lat": 43.42501,
      "lon": -4.81133
    }
  },
  {
    "nombre": "Po",
    "codigo": "05569",
    "location": {
      "town": "Llanes",
      "province": "Asturias",
      "country": "España",
      "lat": 43.42429,
      "lon": -4.78189
    }
  },
  {
    "nombre": "Llanes",
    "codigo": "05571",
    "location": {
      "town": "Llanes",
      "province": "Asturias",
      "country": "España",
      "lat": 43.42094,
      "lon": -4.7587
    }
  },
  {
    "nombre": "San Roque L'Acebal",
    "codigo": "05573",
    "location": {
      "town": "Llanes",
      "province": "Asturias",
      "country": "España",
      "lat": 43.39473,
      "lon": -4.73013
    }
  },
  {
    "nombre": "Vidiago",
    "codigo": "05575",
    "location": {
      "town": "Llanes",
      "province": "Asturias",
      "country": "España",
      "lat": 43.39647,
      "lon": -4.673
    }
  },
  {
    "nombre": "Pendueles",
    "codigo": "05577",
    "location": {
      "town": "Llanes",
      "province": "Asturias",
      "country": "España",
      "lat": 43.39283,
      "lon": -4.63039
    }
  },
  {
    "nombre": "Colombres",
    "codigo": "05579",
    "location": {
      "town": "Ribadedeva",
      "province": "Asturias",
      "country": "España",
      "lat": 43.38272,
      "lon": -4.55709
    }
  },
  {
    "nombre": "Santander Ram",
    "codigo": "05601",
    "location": {
      "town": "Santander",
      "country": "España",
      "lat": 43.4583294,
      "lon": -3.8120706
    }
  },
  {
    "nombre": "Valdecilla La Marga",
    "codigo": "05602",
    "location": {
      "town": "Santander",
      "province": "Cantabria",
      "country": "España",
      "lat": 43.452804,
      "lon": -3.828602
    }
  },
  {
    "nombre": "Cazoña",
    "codigo": "05603",
    "location": {
      "town": "Santander",
      "province": "Cantabria",
      "country": "España",
      "lat": 43.455249,
      "lon": -3.841491
    }
  },
  {
    "nombre": "Adarzo",
    "codigo": "05604",
    "location": {
      "town": "Santander",
      "province": "Cantabria",
      "country": "España",
      "lat": 43.453465,
      "lon": -3.85579
    }
  },
  {
    "nombre": "Bezana",
    "codigo": "05605",
    "location": {
      "town": "Santa Cruz De Bezana",
      "province": "Cantabria",
      "country": "España",
      "lat": 43.44099,
      "lon": -3.89961
    }
  },
  {
    "nombre": "Mortera",
    "codigo": "05607",
    "location": {
      "town": "Piélagos",
      "province": "Cantabria",
      "country": "España",
      "lat": 43.435207,
      "lon": -3.918223
    }
  },
  {
    "nombre": "Boo De Piélago",
    "codigo": "05609",
    "location": {
      "town": "Piélagos",
      "province": "Cantabria",
      "country": "España",
      "lat": 43.431634,
      "lon": -3.946432
    }
  },
  {
    "nombre": "Mogro",
    "codigo": "05611",
    "location": {
      "town": "Miengo",
      "province": "Cantabria",
      "country": "España",
      "lat": 43.42504,
      "lon": -3.96076
    }
  },
  {
    "nombre": "Gornazo",
    "codigo": "05613",
    "location": {
      "town": "Miengo",
      "province": "Cantabria",
      "country": "España",
      "lat": 43.409638,
      "lon": -3.988686
    }
  },
  {
    "nombre": "Mar",
    "codigo": "05615",
    "location": {
      "town": "Polanco",
      "province": "Cantabria",
      "country": "España",
      "lat": 43.398343,
      "lon": -4.010047
    }
  },
  {
    "nombre": "Requejada",
    "codigo": "05617",
    "location": {
      "town": "Polanco",
      "province": "Cantabria",
      "country": "España",
      "lat": 43.39137,
      "lon": -4.02798
    }
  },
  {
    "nombre": "Barreda",
    "codigo": "05619",
    "location": {
      "town": "Torrelavega",
      "province": "Cantabria",
      "country": "España",
      "lat": 43.37424,
      "lon": -4.04187
    }
  },
  {
    "nombre": "Altamira",
    "codigo": "05620",
    "location": {
      "town": "Torrelavega",
      "province": "Cantabria",
      "country": "España",
      "lat": 43.353604,
      "lon": -4.060609
    }
  },
  {
    "nombre": "Torrelavega/Centro",
    "codigo": "05621",
    "location": {
      "town": "Torrelavega",
      "province": "Cantabria",
      "country": "España",
      "lat": 43.35093,
      "lon": -4.051009
    }
  },
  {
    "nombre": "Ganzo",
    "codigo": "05622",
    "location": {
      "town": "Torrelavega",
      "province": "Cantabria",
      "country": "España",
      "lat": 43.356546,
      "lon": -4.070291
    }
  },
  {
    "nombre": "Puente San Miguel",
    "codigo": "05623",
    "location": {
      "town": "Reocín",
      "province": "Cantabria",
      "country": "España",
      "lat": 43.358638,
      "lon": -4.087757
    }
  },
  {
    "nombre": "Santa Isabel De Quijas",
    "codigo": "05625",
    "location": {
      "town": "Reocín",
      "province": "Cantabria",
      "country": "España",
      "lat": 43.358977,
      "lon": -4.111865
    }
  },
  {
    "nombre": "San Pedro De Rudagüera",
    "codigo": "05627",
    "location": {
      "town": "Alfoz De Lloredo",
      "province": "Cantabria",
      "country": "España",
      "lat": 43.361127,
      "lon": -4.149519
    }
  },
  {
    "nombre": "Golbardo",
    "codigo": "05629",
    "location": {
      "town": "Reocín",
      "province": "Cantabria",
      "country": "España",
      "lat": 43.340871,
      "lon": -4.155596
    }
  },
  {
    "nombre": "Casar De Periedo",
    "codigo": "05631",
    "location": {
      "town": "Cabezón De La Sal",
      "province": "Cantabria",
      "country": "España",
      "lat": 43.33877,
      "lon": -4.17473
    }
  },
  {
    "nombre": "Virgen De La Peña",
    "codigo": "05633",
    "location": {
      "town": "Cabezón De La Sal",
      "province": "Cantabria",
      "country": "España",
      "lat": 43.323142,
      "lon": -4.193685
    }
  },
  {
    "nombre": "Ontoria",
    "codigo": "05635",
    "location": {
      "town": "Cabezón De La Sal",
      "province": "Cantabria",
      "country": "España",
      "lat": 43.31525,
      "lon": -4.21554
    }
  },
  {
    "nombre": "Cabezón De La Sal",
    "codigo": "05637",
    "location": {
      "town": "Cabezón De La Sal",
      "province": "Cantabria",
      "country": "España",
      "lat": 43.30777,
      "lon": -4.23196
    }
  },
  {
    "nombre": "Treceño",
    "codigo": "05641",
    "location": {
      "town": "Valdáliga",
      "province": "Cantabria",
      "country": "España",
      "lat": 43.31828,
      "lon": -4.30902
    }
  },
  {
    "nombre": "Roiz",
    "codigo": "05643",
    "location": {
      "town": "Valdáliga",
      "province": "Cantabria",
      "country": "España",
      "lat": 43.32821,
      "lon": -4.34927
    }
  },
  {
    "nombre": "El Barcenal",
    "codigo": "05644",
    "location": {
      "town": "San Vicente De La Barquera",
      "province": "Cantabria",
      "country": "España",
      "lat": 43.340347,
      "lon": -4.383335
    }
  },
  {
    "nombre": "San Vicente De La Barquera",
    "codigo": "05645",
    "location": {
      "town": "San Vicente De La Barquera",
      "province": "Cantabria",
      "country": "España",
      "lat": 43.367837,
      "lon": -4.404504
    }
  },
  {
    "nombre": "Pesúes",
    "codigo": "05647",
    "location": {
      "town": "Val De San Vicente",
      "province": "Cantabria",
      "country": "España",
      "lat": 43.370289,
      "lon": -4.480174
    }
  },
  {
    "nombre": "Unquera",
    "codigo": "05649",
    "location": {
      "town": "Val De San Vicente",
      "province": "Cantabria",
      "country": "España",
      "lat": 43.37478,
      "lon": -4.51434
    }
  },
  {
    "nombre": "Nueva Montaña",
    "codigo": "05651",
    "location": {
      "town": "Santander",
      "province": "Cantabria",
      "country": "España",
      "lat": 43.440103,
      "lon": -3.849398
    }
  },
  {
    "nombre": "Valle Real",
    "codigo": "05652",
    "location": {
      "town": "Santander",
      "province": "Cantabria",
      "country": "España",
      "lat": 43.427513,
      "lon": -3.840498
    }
  },
  {
    "nombre": "Maliaño La Vidriera",
    "codigo": "05655",
    "location": {
      "town": "Camargo",
      "province": "Cantabria",
      "country": "España",
      "lat": 43.416083,
      "lon": -3.841081
    }
  },
  {
    "nombre": "Astillero",
    "codigo": "05657",
    "location": {
      "town": "Astillero (EL)",
      "province": "Cantabria",
      "country": "España",
      "lat": 43.40371,
      "lon": -3.82125
    }
  },
  {
    "nombre": "La Cantábrica",
    "codigo": "05658",
    "location": {
      "town": "Comillas",
      "province": "Cantabria",
      "country": "España",
      "lat": 43.397296,
      "lon": -3.814914
    }
  },
  {
    "nombre": "San Salvador",
    "codigo": "05659",
    "location": {
      "town": "Medio Cudeyo",
      "province": "Cantabria",
      "country": "España",
      "lat": 43.393758,
      "lon": -3.803777
    }
  },
  {
    "nombre": "Heras",
    "codigo": "05661",
    "location": {
      "town": "Medio Cudeyo",
      "province": "Cantabria",
      "country": "España",
      "lat": 43.401139,
      "lon": -3.766305
    }
  },
  {
    "nombre": "Orejo",
    "codigo": "05663",
    "location": {
      "town": "Marina De Cudeyo",
      "province": "Cantabria",
      "country": "España",
      "lat": 43.399487,
      "lon": -3.737923
    }
  },
  {
    "nombre": "Solares",
    "codigo": "05665",
    "location": {
      "town": "Medio Cudeyo",
      "province": "Cantabria",
      "country": "España",
      "lat": 43.38748,
      "lon": -3.73131
    }
  },
  {
    "nombre": "Ceceñas",
    "codigo": "05667",
    "location": {
      "town": "Medio Cudeyo",
      "province": "Cantabria",
      "country": "España",
      "lat": 43.376441,
      "lon": -3.717872
    }
  },
  {
    "nombre": "La Cavada",
    "codigo": "05669",
    "location": {
      "town": "Riotuerto",
      "province": "Cantabria",
      "country": "España",
      "lat": 43.350589,
      "lon": -3.706766
    }
  },
  {
    "nombre": "Liérganes",
    "codigo": "05671",
    "location": {
      "town": "Liérganes",
      "province": "Cantabria",
      "country": "España",
      "lat": 43.34482,
      "lon": -3.74212
    }
  },
  {
    "nombre": "Puente Agüero",
    "codigo": "05672",
    "location": {
      "town": "Entrambasaguas",
      "province": "Cantabria",
      "country": "España",
      "lat": 43.406489,
      "lon": -3.719342
    }
  },
  {
    "nombre": "Villaverde De Pontones",
    "codigo": "05673",
    "location": {
      "town": "Ribamontán Al Monte",
      "province": "Cantabria",
      "country": "España",
      "lat": 43.411322,
      "lon": -3.703643
    }
  },
  {
    "nombre": "Hoz De Anero",
    "codigo": "05675",
    "location": {
      "town": "Ribamontán Al Monte",
      "province": "Cantabria",
      "country": "España",
      "lat": 43.404885,
      "lon": -3.666883
    }
  },
  {
    "nombre": "Beranga",
    "codigo": "05677",
    "location": {
      "town": "Hazas De Cesto",
      "province": "Cantabria",
      "country": "España",
      "lat": 43.41371,
      "lon": -3.57713
    }
  },
  {
    "nombre": "Gama",
    "codigo": "05679",
    "location": {
      "town": "Bárcena De Cicero",
      "province": "Cantabria",
      "country": "España",
      "lat": 43.42315,
      "lon": -3.52472
    }
  },
  {
    "nombre": "Cicero",
    "codigo": "05681",
    "location": {
      "town": "Bárcena De Cicero",
      "province": "Cantabria",
      "country": "España",
      "lat": 43.417052,
      "lon": -3.49049
    }
  },
  {
    "nombre": "Treto",
    "codigo": "05683",
    "location": {
      "town": "Bárcena De Cicero",
      "province": "Cantabria",
      "country": "España",
      "lat": 43.39409,
      "lon": -3.4692
    }
  },
  {
    "nombre": "Limpias",
    "codigo": "05685",
    "location": {
      "town": "Limpias",
      "province": "Cantabria",
      "country": "España",
      "lat": 43.35881,
      "lon": -3.43334
    }
  },
  {
    "nombre": "Marrón",
    "codigo": "05687",
    "location": {
      "town": "Ampuero",
      "province": "Cantabria",
      "country": "España",
      "lat": 43.34661,
      "lon": -3.420918
    }
  },
  {
    "nombre": "Udalla",
    "codigo": "05689",
    "location": {
      "town": "Rasines",
      "province": "Cantabria",
      "country": "España",
      "lat": 43.31368,
      "lon": -3.44549
    }
  },
  {
    "nombre": "Gibaja",
    "codigo": "05691",
    "location": {
      "town": "Ramales De La Victoria",
      "province": "Cantabria",
      "country": "España",
      "lat": 43.28219,
      "lon": -3.43831
    }
  },
  {
    "nombre": "Arla - Berrón",
    "codigo": "05721",
    "location": {
      "town": "Valle De Mena",
      "province": "Cantabria",
      "country": "España",
      "lat": 43.166699,
      "lon": -3.227589
    }
  },
  {
    "nombre": "Ungo Nava",
    "codigo": "05722",
    "location": {
      "town": "Valle De Mena",
      "province": "Cantabria",
      "country": "España",
      "lat": 43.142894,
      "lon": -3.264716
    }
  },
  {
    "nombre": "Mercadillo-Villasana",
    "codigo": "05724",
    "location": {
      "town": "Cerezo De Río Tirón",
      "province": "Cantabria",
      "country": "España",
      "lat": 43.105209,
      "lon": -3.264469
    }
  },
  {
    "nombre": "Cadagua",
    "codigo": "05727",
    "location": {
      "town": "Valle De Mena",
      "province": "Cantabria",
      "country": "España",
      "lat": 43.068171,
      "lon": -3.347339
    }
  },
  {
    "nombre": "Bercedo Montija",
    "codigo": "05730",
    "location": {
      "town": "Merindad De Sotoscueva",
      "province": "Cantabria",
      "country": "España",
      "lat": 43.088479,
      "lon": -3.456
    }
  },
  {
    "nombre": "Quintana De Los Prados",
    "codigo": "05731",
    "location": {
      "town": "Espinosa De Los Monteros",
      "province": "Cantabria",
      "country": "España",
      "lat": 43.08,
      "lon": -3.51
    }
  },
  {
    "nombre": "Espinosa De Los Monteros",
    "codigo": "05732",
    "location": {
      "town": "Espinosa De Los Monteros",
      "province": "Cantabria",
      "country": "España",
      "lat": 43.074252,
      "lon": -3.537116
    }
  },
  {
    "nombre": "Redondo",
    "codigo": "05733",
    "location": {
      "town": "Merindad De Sotoscueva",
      "province": "Cantabria",
      "country": "España",
      "lat": 43.062993,
      "lon": -3.607895
    }
  },
  {
    "nombre": "Sotoscueva",
    "codigo": "05734",
    "location": {
      "town": "Merindad De Sotoscueva",
      "province": "Cantabria",
      "country": "España",
      "lat": 43.045292,
      "lon": -3.688253
    }
  },
  {
    "nombre": "Pedrosa",
    "codigo": "05735",
    "location": {
      "town": "Merindad De Valdeporres",
      "province": "Cantabria",
      "country": "España",
      "lat": 43.012367,
      "lon": -3.737852
    }
  },
  {
    "nombre": "Dosante Cidad",
    "codigo": "05736",
    "location": {
      "town": "Merindad De Valdeporres",
      "province": "Cantabria",
      "country": "España",
      "lat": 43.00125,
      "lon": -3.74525
    }
  },
  {
    "nombre": "Robredo Ahedo",
    "codigo": "05737",
    "location": {
      "town": "Merindad De Valdeporres",
      "province": "Cantabria",
      "country": "España",
      "lat": 43.019094,
      "lon": -3.809231
    }
  },
  {
    "nombre": "Soncillo",
    "codigo": "05738",
    "location": {
      "town": "Valle De Valdebezana",
      "province": "Cantabria",
      "country": "España",
      "lat": 43.005809,
      "lon": -3.844888
    }
  },
  {
    "nombre": "Cabañas De Virtus",
    "codigo": "05739",
    "location": {
      "town": "Valle De Valdebezana",
      "province": "Cantabria",
      "country": "España",
      "lat": 42.996397,
      "lon": -3.858466
    }
  },
  {
    "nombre": "Arija",
    "codigo": "05740",
    "location": {
      "town": "Arija",
      "province": "Cantabria",
      "country": "España",
      "lat": 42.991292,
      "lon": -3.945006
    }
  },
  {
    "nombre": "Llano",
    "codigo": "05741",
    "location": {
      "town": "Rozas De Valdearroyo (LAS)",
      "province": "Cantabria",
      "country": "España",
      "lat": 42.988062,
      "lon": -3.982357
    }
  },
  {
    "nombre": "Feve-Las Rozas De Valdearroyo",
    "codigo": "05742",
    "location": {
      "town": "Rozas De Valdearroyo (LAS)",
      "province": "Cantabria",
      "country": "España",
      "lat": 42.973605,
      "lon": -4.029864
    }
  },
  {
    "nombre": "Montes Claros",
    "codigo": "05743",
    "location": {
      "town": "Valdeprado Del Río",
      "province": "Cantabria",
      "country": "España",
      "lat": 42.934323,
      "lon": -4.050073
    }
  },
  {
    "nombre": "Los Carabeos",
    "codigo": "05744",
    "location": {
      "town": "Valdeprado Del Río",
      "province": "Cantabria",
      "country": "España",
      "lat": 42.910329,
      "lon": -4.075211
    }
  },
  {
    "nombre": "Cillamayor",
    "codigo": "05747",
    "location": {
      "town": "Barruelo De Santullán",
      "province": "Palencia",
      "country": "España",
      "lat": 42.857752,
      "lon": -4.279178
    }
  },
  {
    "nombre": "Salinas De Pisuerga",
    "codigo": "05748",
    "location": {
      "town": "Salinas De Pisuerga",
      "province": "Palencia",
      "country": "España",
      "lat": 42.851271,
      "lon": -4.386209
    }
  },
  {
    "nombre": "Vado Cervera",
    "codigo": "05749",
    "location": {
      "town": "Dehesa De Montejo",
      "province": "Palencia",
      "country": "España",
      "lat": 42.83936,
      "lon": -4.49477
    }
  },
  {
    "nombre": "Castrejón De La Peña",
    "codigo": "05750",
    "location": {
      "town": "Castrejón De La Peña",
      "province": "Palencia",
      "country": "España",
      "lat": 42.81199,
      "lon": -4.60162
    }
  },
  {
    "nombre": "Villaverde Tarilonte",
    "codigo": "05751",
    "location": {
      "town": "Santibáñez De La Peña",
      "province": "Palencia",
      "country": "España",
      "lat": 42.818353,
      "lon": -4.685419
    }
  },
  {
    "nombre": "Santibañez De La Peña",
    "codigo": "05752",
    "location": {
      "town": "Santibáñez De La Peña",
      "province": "Palencia",
      "country": "España",
      "lat": 42.80204,
      "lon": -4.74145
    }
  },
  {
    "nombre": "Guardo/Apdro.",
    "codigo": "05753",
    "location": {
      "town": "Guardo",
      "province": "Palencia",
      "country": "España",
      "lat": 42.78776,
      "lon": -4.845192
    }
  },
  {
    "nombre": "Guardo",
    "codigo": "05754",
    "location": {
      "town": "Guardo",
      "province": "Palencia",
      "country": "España",
      "lat": 42.79108,
      "lon": -4.85201
    }
  },
  {
    "nombre": "La Llama De La Guzpeña",
    "codigo": "05755",
    "location": {
      "town": "Prado De La Guzpeña",
      "province": "León",
      "country": "España",
      "lat": 42.770274,
      "lon": -5.041299
    }
  },
  {
    "nombre": "La Espina",
    "codigo": "05756",
    "location": {
      "town": "Valderrueda",
      "province": "León",
      "country": "España",
      "lat": 42.787317,
      "lon": -4.905185
    }
  },
  {
    "nombre": "Valcuende",
    "codigo": "05757",
    "location": {
      "town": "Valderrueda",
      "province": "León",
      "country": "España",
      "lat": 42.76562,
      "lon": -4.92921
    }
  },
  {
    "nombre": "Puente Almuhey",
    "codigo": "05758",
    "location": {
      "town": "Valderrueda",
      "province": "León",
      "country": "España",
      "lat": 42.78764,
      "lon": -4.971911
    }
  },
  {
    "nombre": "Prado De La Guzpeña",
    "codigo": "05759",
    "location": {
      "town": "Prado De La Guzpeña",
      "province": "León",
      "country": "España",
      "lat": 42.7838799,
      "lon": -5.02648
    }
  },
  {
    "nombre": "Valle De Las Casas",
    "codigo": "05760",
    "location": {
      "town": "Cebanico",
      "province": "León",
      "country": "España",
      "lat": 42.76778,
      "lon": -5.07111
    }
  },
  {
    "nombre": "Cistierna",
    "codigo": "05761",
    "location": {
      "town": "Cistierna",
      "province": "León",
      "country": "España",
      "lat": 42.80314,
      "lon": -5.13076
    }
  },
  {
    "nombre": "Yugueros",
    "codigo": "05762",
    "location": {
      "town": "Ercina (LA)",
      "province": "León",
      "country": "España",
      "lat": 42.809817,
      "lon": -5.180063
    }
  },
  {
    "nombre": "La Ercina",
    "codigo": "05763",
    "location": {
      "town": "Ercina (LA)",
      "province": "León",
      "country": "España",
      "lat": 42.80868,
      "lon": -5.214087
    }
  },
  {
    "nombre": "Barrillos",
    "codigo": "05764",
    "location": {
      "town": "Ercina (LA)",
      "province": "León",
      "country": "España",
      "lat": 42.812364,
      "lon": -5.283128
    }
  },
  {
    "nombre": "Feve-La Losilla",
    "codigo": "05765",
    "location": {
      "town": "Vegaquemada",
      "province": "León",
      "country": "España",
      "lat": 42.838561,
      "lon": -5.318151
    }
  },
  {
    "nombre": "Boñar",
    "codigo": "05766",
    "location": {
      "town": "Boñar",
      "province": "León",
      "country": "España",
      "lat": 42.862759,
      "lon": -5.328534
    }
  },
  {
    "nombre": "La Vecilla",
    "codigo": "05767",
    "location": {
      "town": "Vecilla (LA)",
      "province": "León",
      "country": "España",
      "lat": 42.855095,
      "lon": -5.412162
    }
  },
  {
    "nombre": "Aviados",
    "codigo": "05768",
    "location": {
      "town": "Valdepiélago",
      "province": "León",
      "country": "España",
      "lat": 42.854774,
      "lon": -5.442816
    }
  },
  {
    "nombre": "La Valcueva",
    "codigo": "05769",
    "location": {
      "town": "Matallana De Torío",
      "province": "León",
      "country": "España",
      "lat": 42.84966,
      "lon": -5.486957
    }
  },
  {
    "nombre": "Matallana",
    "codigo": "05770",
    "location": {
      "town": "Matallana De Torío",
      "province": "León",
      "country": "España",
      "lat": 42.841068,
      "lon": -5.522135
    }
  },
  {
    "nombre": "Pardavé",
    "codigo": "05771",
    "location": {
      "town": "Matallana De Torío",
      "province": "León",
      "country": "España",
      "lat": 42.806349,
      "lon": -5.508186
    }
  },
  {
    "nombre": "Pedrún",
    "codigo": "05772",
    "location": {
      "town": "Garrafe De Torío",
      "province": "León",
      "country": "España",
      "lat": 42.791013,
      "lon": -5.506954
    }
  },
  {
    "nombre": "Manzaneda",
    "codigo": "05773",
    "location": {
      "town": "Truchas",
      "province": "León",
      "country": "España",
      "lat": 42.754603,
      "lon": -5.51641
    }
  },
  {
    "nombre": "Garrafe",
    "codigo": "05774",
    "location": {
      "town": "Garrafe De Torío",
      "province": "León",
      "country": "España",
      "lat": 42.734502,
      "lon": -5.52421
    }
  },
  {
    "nombre": "Palazuelo",
    "codigo": "05775",
    "location": {
      "town": "Garrafe De Torío",
      "province": "León",
      "country": "España",
      "lat": 42.707132,
      "lon": -5.533764
    }
  },
  {
    "nombre": "San Feliz",
    "codigo": "05776",
    "location": {
      "town": "Garrafe De Torío",
      "province": "León",
      "country": "España",
      "lat": 42.682301,
      "lon": -5.537782
    }
  },
  {
    "nombre": "Villaquilambre",
    "codigo": "05777",
    "location": {
      "town": "Villaquilambre",
      "province": "León",
      "country": "España",
      "lat": 42.646934,
      "lon": -5.554046
    }
  },
  {
    "nombre": "Feve-León",
    "codigo": "05778",
    "location": {
      "town": "León",
      "province": "León",
      "country": "España",
      "lat": 42.60232,
      "lon": -5.57504
    }
  },
  {
    "nombre": "Hospitales",
    "codigo": "05784",
    "location": {
      "town": "León",
      "province": "León",
      "country": "España",
      "lat": 42.61262,
      "lon": -5.56985
    }
  },
  {
    "nombre": "Villasinta",
    "codigo": "05785",
    "location": {
      "town": "Villaquilambre",
      "province": "León",
      "country": "España",
      "lat": 42.657554,
      "lon": -5.549298
    }
  },
  {
    "nombre": "Matueca De Torio",
    "codigo": "05786",
    "location": {
      "town": "Garrafe De Torío",
      "province": "León",
      "country": "España",
      "lat": 42.771532,
      "lon": -5.51194
    }
  },
  {
    "nombre": "Naredo De Fenar",
    "codigo": "05787",
    "location": {
      "town": "Matallana De Torío",
      "province": "León",
      "country": "España",
      "lat": 42.833441,
      "lon": -5.523002
    }
  },
  {
    "nombre": "Robles",
    "codigo": "05788",
    "location": {
      "town": "Matallana De Torío",
      "province": "León",
      "country": "España",
      "lat": 42.840743,
      "lon": -5.507292
    }
  },
  {
    "nombre": "Campohermoso",
    "codigo": "05789",
    "location": {
      "town": "Vecilla (LA)",
      "province": "León",
      "country": "España",
      "lat": 42.855941,
      "lon": -5.42872
    }
  },
  {
    "nombre": "Sorriba",
    "codigo": "05790",
    "location": {
      "town": "Valverde De La Virgen",
      "province": "León",
      "country": "España",
      "lat": 42.786278,
      "lon": -5.127479
    }
  },
  {
    "nombre": "La Mata De La Riba",
    "codigo": "05793",
    "location": {
      "town": "Vegaquemada",
      "province": "León",
      "country": "España",
      "lat": 42.858578,
      "lon": -5.339645
    }
  },
  {
    "nombre": "La Raya",
    "codigo": "05794",
    "location": {
      "town": "León",
      "province": "León",
      "country": "España",
      "lat": 42.629108,
      "lon": -5.561383
    }
  },
  {
    "nombre": "Feve-Otero",
    "codigo": "05795",
    "location": {
      "town": "Villaobispo De Otero",
      "province": "León",
      "country": "España",
      "lat": 42.859568,
      "lon": -5.389983
    }
  },
  {
    "nombre": "Villa Romana",
    "codigo": "05796",
    "location": {
      "town": "León",
      "province": "León",
      "country": "España",
      "lat": 42.629111,
      "lon": -5.561338
    }
  },
  {
    "nombre": "Valdepiélago",
    "codigo": "05797",
    "location": {
      "town": "Valdepiélago",
      "province": "León",
      "country": "España",
      "lat": 42.86505,
      "lon": -5.403217
    }
  },
  {
    "nombre": "La Devesa",
    "codigo": "05798",
    "location": {
      "town": "Truchas",
      "province": "León",
      "country": "España",
      "lat": 42.820148,
      "lon": -5.302187
    }
  },
  {
    "nombre": "Cerezal De La Guzpeña",
    "codigo": "05799",
    "location": {
      "town": "Prado De La Guzpeña",
      "province": "León",
      "country": "España",
      "lat": 42.779834,
      "lon": -5.005851
    }
  },
  {
    "nombre": "Ventas/S.Mamés",
    "codigo": "05801",
    "location": {
      "town": "León",
      "province": "León",
      "country": "España",
      "lat": 42.6096999,
      "lon": -5.5718483
    }
  },
  {
    "nombre": "La Asunción/Universidad",
    "codigo": "05803",
    "location": {
      "town": "León",
      "province": "León",
      "country": "España",
      "lat": 42.615821,
      "lon": -5.566379
    }
  },
  {
    "nombre": "Barrio De Las Ollas",
    "codigo": "05805",
    "location": {
      "town": "Boñar",
      "province": "León",
      "country": "España",
      "lat": 42.858586,
      "lon": -5.339549
    }
  },
  {
    "nombre": "Valderilla",
    "codigo": "05807",
    "location": {
      "town": "Siero",
      "province": "León",
      "country": "España",
      "lat": 42.717641,
      "lon": -5.530277
    }
  },
  {
    "nombre": "Feve-Cartagena Plaza Bastarreche",
    "codigo": "05951",
    "location": {
      "town": "Cartagena",
      "province": "Murcia",
      "country": "España",
      "lat": 37.603575,
      "lon": -0.977029
    }
  },
  {
    "nombre": "Hospital",
    "codigo": "05952",
    "location": {
      "town": "Cartagena",
      "province": "Murcia",
      "country": "España",
      "lat": 37.60529,
      "lon": -0.960681
    }
  },
  {
    "nombre": "Media Legua",
    "codigo": "05953",
    "location": {
      "town": "Cartagena",
      "province": "Murcia",
      "country": "España",
      "lat": 37.607888,
      "lon": -0.953643
    }
  },
  {
    "nombre": "Vista Alegre",
    "codigo": "05955",
    "location": {
      "town": "Cartagena",
      "province": "Murcia",
      "country": "España",
      "lat": 37.609294,
      "lon": -0.944179
    }
  },
  {
    "nombre": "El Abrevadero",
    "codigo": "05957",
    "location": {
      "town": "Cartagena",
      "province": "Murcia",
      "country": "España",
      "lat": 37.609727,
      "lon": -0.931259
    }
  },
  {
    "nombre": "Alumbres",
    "codigo": "05959",
    "location": {
      "town": "Cartagena",
      "province": "Murcia",
      "country": "España",
      "lat": 37.609929,
      "lon": -0.914841
    }
  },
  {
    "nombre": "La Esperanza",
    "codigo": "05961",
    "location": {
      "town": "Murcia",
      "province": "Murcia",
      "country": "España",
      "lat": 37.613793,
      "lon": -0.891342
    }
  },
  {
    "nombre": "La Unión Vieja",
    "codigo": "05963",
    "location": {
      "town": "Unión (LA)",
      "province": "Murcia",
      "country": "España",
      "lat": 37.615466,
      "lon": -0.881629
    }
  },
  {
    "nombre": "La Unión",
    "codigo": "05965",
    "location": {
      "town": "Unión (LA)",
      "province": "Murcia",
      "country": "España",
      "lat": 37.615673,
      "lon": -0.875217
    }
  },
  {
    "nombre": "Sierra Minera",
    "codigo": "05967",
    "location": {
      "town": "Unión (LA)",
      "province": "Murcia",
      "country": "España",
      "lat": 37.61985,
      "lon": -0.864864
    }
  },
  {
    "nombre": "Llano Del Beal",
    "codigo": "05969",
    "location": {
      "town": "Cartagena",
      "province": "Murcia",
      "country": "España",
      "lat": 37.626055,
      "lon": -0.83621
    }
  },
  {
    "nombre": "El Estrecho",
    "codigo": "05971",
    "location": {
      "town": "Fuente Álamo De Murcia",
      "province": "Murcia",
      "country": "España",
      "lat": 37.627603,
      "lon": -0.829591
    }
  },
  {
    "nombre": "Los Nietos Viejos",
    "codigo": "05973",
    "location": {
      "town": "Cartagena",
      "province": "Murcia",
      "country": "España",
      "lat": 37.646924,
      "lon": -0.791485
    }
  },
  {
    "nombre": "Los Nietos Pescadería",
    "codigo": "05975",
    "location": {
      "town": "Cartagena",
      "province": "Murcia",
      "country": "España",
      "lat": 37.649354,
      "lon": -0.787864
    }
  },
  {
    "nombre": "Los Nietos",
    "codigo": "05977",
    "location": {
      "town": "Cartagena",
      "province": "Murcia",
      "country": "España",
      "lat": 37.651839,
      "lon": -0.796983
    }
  },
  {
    "nombre": "Librilla (APD)",
    "codigo": "06001",
    "location": {
      "town": "Librilla",
      "province": "Murcia",
      "country": "España",
      "lat": 37.8865569,
      "lon": -1.3471673
    }
  },
  {
    "nombre": "Alhama De Murcia",
    "codigo": "06002",
    "location": {
      "town": "Alhama De Murcia",
      "province": "Murcia",
      "country": "España",
      "lat": 37.8493837,
      "lon": -1.4145055
    }
  },
  {
    "nombre": "Totana",
    "codigo": "06003",
    "location": {
      "town": "Totana",
      "province": "Murcia",
      "country": "España",
      "lat": 37.7635101,
      "lon": -1.4956127
    }
  },
  {
    "nombre": "La Hoya (APD)",
    "codigo": "06004",
    "location": {
      "town": "Lorca",
      "province": "Murcia",
      "country": "España",
      "lat": 37.7037338,
      "lon": -1.5954024
    }
  },
  {
    "nombre": "Lorca - San Diego (APD)",
    "codigo": "06005",
    "location": {
      "town": "Lorca",
      "province": "Murcia",
      "country": "España",
      "lat": 37.6805717,
      "lon": -1.6858944
    }
  },
  {
    "nombre": "Lorca Sutullena",
    "codigo": "06006",
    "location": {
      "town": "Lorca",
      "province": "Murcia",
      "country": "España",
      "lat": 37.6725714,
      "lon": -1.6959002
    }
  },
  {
    "nombre": "Puerto Lumbreras (APT)",
    "codigo": "06007",
    "location": {
      "town": "Puerto Lumbreras",
      "province": "Murcia",
      "country": "España",
      "lat": 37.5809194,
      "lon": -1.731775
    }
  },
  {
    "nombre": "Alcantarilla Los Romanos",
    "codigo": "06008",
    "location": {
      "town": "Alcantarilla",
      "province": "Murcia",
      "country": "España",
      "lat": 37.9642527,
      "lon": -1.2170108
    }
  },
  {
    "nombre": "Almendricos",
    "codigo": "06100",
    "location": {
      "town": "Lorca",
      "province": "Murcia",
      "country": "España",
      "lat": 37.4748912,
      "lon": -1.7796447
    }
  },
  {
    "nombre": "Las Norias (APD)",
    "codigo": "06101",
    "location": {
      "town": "Huércal-Overa",
      "province": "Almería",
      "country": "España",
      "lat": null,
      "lon": null
    }
  },
  {
    "nombre": "Huercal-Overa",
    "codigo": "06102",
    "location": {
      "town": "Huércal-Overa",
      "province": "Almería",
      "country": "España",
      "lat": null,
      "lon": null
    }
  },
  {
    "nombre": "Almajalejo (APD)",
    "codigo": "06103",
    "location": {
      "town": "Huércal-Overa",
      "province": "Almería",
      "country": "España",
      "lat": null,
      "lon": null
    }
  },
  {
    "nombre": "Zurgena",
    "codigo": "06104",
    "location": {
      "town": "Zurgena",
      "province": "Almería",
      "country": "España",
      "lat": null,
      "lon": null
    }
  },
  {
    "nombre": "Arboleas (APD)",
    "codigo": "06105",
    "location": {
      "town": "Arboleas",
      "province": "Almería",
      "country": "España",
      "lat": null,
      "lon": null
    }
  },
  {
    "nombre": "Albox",
    "codigo": "06106",
    "location": {
      "town": "Albox",
      "province": "Almería",
      "country": "España",
      "lat": null,
      "lon": null
    }
  },
  {
    "nombre": "Cantoria (APD)",
    "codigo": "06107",
    "location": {
      "town": "Cantoria",
      "province": "Almería",
      "country": "España",
      "lat": null,
      "lon": null
    }
  },
  {
    "nombre": "Fines-Olula",
    "codigo": "06108",
    "location": {
      "town": "Fines",
      "province": "Almería",
      "country": "España",
      "lat": null,
      "lon": null
    }
  },
  {
    "nombre": "Purchena (APD)",
    "codigo": "06109",
    "location": {
      "town": "Purchena",
      "province": "Almería",
      "country": "España",
      "lat": null,
      "lon": null
    }
  },
  {
    "nombre": "Tijola (APT)",
    "codigo": "06110",
    "location": {
      "town": "Tíjola",
      "province": "Almería",
      "country": "España",
      "lat": null,
      "lon": null
    }
  },